City,Population,lat,lng
tokyo,31480498,35.685,139.751389
shanghai,14608512,31.045556,121.399722
bombay,12692717,18.975,72.825833
karachi,11627378,24.9056,67.0822
delhi,10928270,28.666667,77.216667
new delhi,10928270,28.6,77.2
manila,10443877,14.6042,120.9822
moscow,10381288,55.752222,37.615556
seoul,10323448,37.5985,126.9783
sao paulo,10021437,-23.473293,-46.665803
istanbul,9797536,41.018611,28.964722
lagos,8789133,6.453056,3.395833
mexico,8720916,19.434167,-99.138611
jakarta,8540306,-6.174444,106.829444
new york,8107916,40.7141667,-74.0063889
kinshasa,7787832,-4.3,15.3
cairo,7734602,30.05,31.25
lima,7646786,-12.05,-77.05
peking,7480601,39.928889,116.388333
london,7421228,51.514125,-0.093689
bogota,7102602,4.649178,-74.062827
dhaka,6493177,23.7230556,90.4086111
lahore,6312576,31.549722,74.343611
rio de janeiro,6023742,-22.9,-43.233333
baghdad,5672516,33.3386111,44.3938889
bangkok,5104475,13.753979,100.501444
bangalore,4931603,12.983333,77.583333
santiago,4837248,-33.45,-70.666667
calcutta,4631819,22.569722,88.369722
toronto,4612187,43.666667,-79.416667
rangoon,4477782,16.7833333,96.1666667
sydney,4394585,-33.861481,151.205475
madras,4328416,13.083333,80.283333
wuhan,4184206,30.580125,114.273405
saint petersburg,4039751,59.894444,30.264167
chongqing,3967028,29.562778,106.552778
xian,3953191,34.258333,108.928611
chengdu,3950437,30.666667,104.066667
los angeles,3877129,34.0522222,-118.2427778
alexandria,3811512,31.1980556,29.9191667
tianjin,3766207,39.142222,117.176667
melbourne,3730212,-37.813938,144.963425
ahmadabad,3719933,23.033333,72.616667
abidjan,3692570,5.309657,-4.012656
kano,3626204,11.994354,8.513807
casablanca,3609698,33.592779,-7.619157
hyderabad,3598199,17.375278,78.474444
ibadan,3565810,7.387778,3.896389
singapore,3547809,1.2930556,103.8558333
ankara,3519177,39.911652,32.840305
shenyang,3512192,41.792222,123.432778
riyadh,3469290,24.653664,46.71522
ho chi minh city,3467426,10.75,106.666667
cape town,3433504,-33.925839,18.423218
berlin,3398362,52.516667,13.4
montreal,3268513,45.5,-73.583333
harbin,3229883,45.75,126.65
guangzhou,3152825,23.116667,113.25
durban,3120340,-29.857896,31.029198
madrid,3102644,40.408566,-3.69222
nanjing,3087010,32.061667,118.777778
kabul,3043589,34.516667,69.183333
pune,2935968,18.533333,73.866667
surat,2894675,20.966667,72.9
chicago,2841952,41.85,-87.65
kanpur,2823523,26.466667,80.35
umm durman,2810328,15.6361111,32.4372222
luanda,2776125,-8.836804,13.233174
addis abeba,2757807,9.024325,38.749226
nairobi,2750561,-1.2833333,36.8166667
taiyuan,2722475,37.726944,112.470833
jaipur,2711937,26.916667,75.816667
salvador,2711903,-12.983333,-38.516667
dakar,2702820,14.6708333,-17.4380556
dar es salaam,2698651,-6.8,39.2833333
rome,2643736,41.9,12.483333
mogadishu,2590180,2.0666667,45.3666667
jiddah,2545728,21.516944,39.219167
changchun,2537421,43.88,125.322778
taipei,2514794,25.0391667,121.525
kiev,2514227,50.433333,30.516667
faisalabad,2507302,31.416667,73.083333
izmir,2501895,38.412726,27.138376
lakhnau,2472250,26.85,80.916667
gizeh,2443490,30.0086111,31.2122222
fortaleza,2416920,-3.316667,-41.416667
cali,2392897,3.437222,-76.5225
surabaya,2374920,-7.249167,112.750833
belo horizonte,2373255,-19.916667,-43.933333
mashhad,2307254,36.297,59.6062
nagpur,2228191,21.15,79.1
harare,2213701,-17.8177778,31.0447222
brasilia,2207812,-15.783333,-47.916667
santo domingo,2202016,18.4666667,-69.9
nagoya,2191291,35.180198,136.906739
aleppo,2139878,36.2027778,37.1586111
paris,2110694,48.866667,2.333333
jinan,2069266,36.668333,116.997222
tangshan,2054526,37.3325,114.701389
dalian,2035307,38.912222,121.602222
houston,2027712,29.7630556,-95.3630556
johannesburg,2026466,-26.205171,28.049815
medellin,2000001,6.25184,-75.563591
algiers,1980242,36.7630556,3.0505556
tashkent,1978078,41.3166667,69.25
khartoum,1974780,15.5880556,32.5341667
accra,1963460,5.55,-0.2166667
guayaquil,1952029,-2.1666667,-79.9
maracaibo,1948269,10.6316667,-71.6405556
rabat,1894386,34.013784,-6.844268
jilin,1881977,43.850833,126.560278
hangzhou,1878129,30.29365,120.161419
bucharest,1877155,44.433333,26.1
nanchang,1871351,28.55,115.933333
conakry,1871185,9.5091667,-13.7122222
brisbane,1843459,-27.47101,153.024292
vancouver,1837970,49.25,-123.133333
indore,1837230,22.716667,75.833333
caracas,1815681,10.5,-66.9166667
ecatepec,1806297,19.601111,-99.0525
medan,1751190,3.583333,98.666667
rawalpindi,1743599,33.6007,73.0679
minsk,1742123,53.9,27.5666667
hamburg,1733846,53.55,10
curitiba,1718433,-25.416667,-49.25
budapest,1708088,47.5,19.083333
bandung,1699822,-6.903889,107.618611
soweto,1695094,-26.267812,27.858492
warsaw,1651676,52.25,21
qingdao,1642245,36.098611,120.371944
guadalajara,1640649,20.666667,-103.333333
pretoria,1619485,-25.706944,28.229444
patna,1600085,25.6,85.116667
bhopal,1600080,23.266667,77.4
manaus,1598227,-3.113333,-60.025278
xinyang,1590668,32.095833,114.120278
kaduna,1582211,10.522239,7.43828
damascus,1576843,33.5,36.3
phnum penh,1573523,11.55,104.9166667
barcelona,1570378,41.398371,2.1741
vienna,1569315,48.2,16.366667
esfahan,1547241,32.657218,51.677608
ludhiana,1545476,30.9,75.85
kobe,1528487,34.691304,135.182995
bekasi,1520204,-6.2349,106.9896
kaohsiung,1512832,22.6177778,120.3013889
kaohsiung,1512832,22.6333333,120.35
urumqi,1508225,43.800965,87.600459
thana,1486453,19.2,72.966667
recife,1478118,-8.05,-34.9
kumasi,1468797,6.6833333,-1.6166667
kuala lumpur,1453978,3.166667,101.7
philadelphia,1453268,39.9522222,-75.1641667
karaj,1448996,35.8355,51.0103
perth,1446715,-31.95224,115.861397
cordoba,1441007,-31.413496,-64.181052
multan,1437644,30.195556,71.475278
hanoi,1431377,21.033333,105.85
ha noi,1431377,21.033333,105.85
agra,1430194,27.183333,78.016667
phoenix,1428509,33.4483333,-112.0733333
tabriz,1424701,38.08,46.2919
novosibirsk,1419016,55.0415,82.9346
lanzhou,1417742,36.056389,103.792222
bursa,1413485,40.191667,29.061111
vadodara,1409565,22.3,73.2
belem,1407737,-1.45,-48.483333
juarez,1403025,31.733333,-106.483333
fushun,1400646,41.7,123.883333
quito,1399814,-0.2166667,-78.5
puebla,1392137,19.05,-98.2
antananarivo,1391506,-18.9166667,47.5166667
luoyang,1390581,34.683611,112.453611
hefei,1388904,31.863889,117.280833
hyderabad,1386840,25.39242,68.373656
valencia,1385202,10.1805556,-68.0038889
gujranwala,1384869,32.161667,74.188309
barranquilla,1380437,10.963889,-74.796389
tijuana,1376494,32.533333,-117.016667
lubumbashi,1374808,-11.666667,27.466667
porto alegre,1372763,-30.033333,-51.2
tangerang,1372185,-6.178056,106.63
handan,1358318,36.566667,114.533333
kampala,1353236,0.3155556,32.5655556
suzhou,1343091,31.311389,120.618056
khulna,1342429,22.8,89.55
douala,1338144,4.0502778,9.7
makasar,1321832,-5.14,119.4221
kawasaki,1306804,35.520556,139.717222
montevideo,1305865,-34.8580556,-56.1708333
yaounde,1299446,3.8666667,11.5166667
bamako,1297390,12.65,-8
semarang,1288221,-6.9932,110.4203
yekaterinburg,1287586,56.8519,60.6122
san diego,1287050,32.7152778,-117.1563889
pimpri,1284702,18.616667,73.8
nizhniy novgorod,1284176,56.326944,44.0075
faridabad,1280909,28.433333,77.316667
lusaka,1267458,-15.4166667,28.2833333
kalyan,1262355,19.25,73.15
san antonio,1256810,29.4238889,-98.4933333
stockholm,1253309,59.333333,18.05
bayrut,1252010,33.8719444,35.5097222
beirut,1252010,33.8719444,35.5097222
shiraz,1249972,29.6036,52.5388
adana,1249680,37.001667,35.328889
munich,1246133,48.15,11.5833
palembang,1241334,-2.916667,104.75
port-au-prince,1234750,18.5391667,-72.335
nezahualcoyotl,1232565,19.413611,-99.033056
peshawar,1219248,34.008,71.578488
rosario,1218497,-32.946818,-60.639317
davao,1212285,7.073056,125.612778
dallas,1211704,32.7833333,-96.8
mandalay,1208227,22,96.0833333
almaty,1204820,43.25,76.95
mecca,1199659,21.426667,39.826111
ghaziabad,1199306,28.666667,77.433333
anshan,1199275,41.123611,122.99
xuzhou,1199193,34.180454,117.15707
depok,1198195,-6.343333,106.498889
maputo,1191613,-25.9652778,32.5891667
freetown,1190761,8.49,-13.2341667
fuzhou,1179720,26.061389,119.306111
rajkot,1177434,22.3,70.783333
guiyang,1171633,26.583333,106.716667
goiania,1171209,-16.666667,-49.266667
guarulhos,1169601,-23.45068,-46.526175
varanasi,1164520,25.333333,83
fez,1160239,34.037151,-4.999797
milan,1156903,45.466667,9.2
prague,1154508,50.083333,14.466667
tripoli,1150990,32.8925,13.18
port harcourt,1148753,4.777423,7.013404
hiroshima,1143850,34.434844,132.740622
managua,1140499,12.1508333,-86.2683333
dubai,1137376,25.258172,55.304717
samara,1134742,53.1835,50.1182
omsk,1129289,55,73.4
benin,1125126,6.335045,5.627492
monterrey,1122912,25.666667,-100.316667
baku,1116513,40.395278,49.882222
brazzaville,1115773,-4.2591667,15.2847222
belgrade,1115200,44.818611,20.468056
leon,1114662,21.116667,-101.666667
maiduguri,1112511,11.846441,13.160274
wuxi,1108647,31.568873,120.288573
kazan,1104750,55.78874,49.122144
yerevan,1093499,40.1811111,44.5136111
amritsar,1092528,31.633056,74.865556
copenhagen,1089958,55.666667,12.583333
taichung,1083582,24.1433333,120.6813889
saitama,1077730,35.895534,139.67747
rostov-na-donu,1074495,47.23135,39.723284
adelaide,1074168,-34.928661,138.598633
allahabad,1073544,25.45,81.85
gaziantep,1066561,37.059444,37.3825
visakhapatnam,1063293,17.7,83.3
chelyabinsk,1062931,55.154444,61.429722
sofia,1062065,42.6833333,23.3166667
datong,1052678,40.093611,113.291389
tbilisi,1049516,41.725,44.7908333
xianyang,1034081,34.33778,108.70261
ufa,1033350,54.785167,56.045621
campinas,1031573,-22.9,-47.083333
ouagadougou,1031330,12.3702778,-1.5247222
jabalpur,1030276,23.166667,79.95
haora,1027771,22.589167,88.310278
huainan,1027655,32.626389,116.996944
dublin,1024027,53.3330556,-6.2488889
kunming,1023674,25.038889,102.718333
brussels,1019022,50.833333,4.333333
aurangabad,1016520,19.883333,75.333333
qom,1011103,34.6401,50.8764
volgograd,1010331,48.71939,44.501835
shenzhen,1002592,22.533333,114.133333
nova iguacu,1002129,-22.759188,-43.431887
rongcheng,1001985,23.528858,116.364159
odesa,1001553,46.463934,30.738551
kitakyushu,997545,33.833333,130.833333
sholapur,997358,17.683333,75.916667
baoding,995652,38.851111,115.490278
benxi,987717,41.288611,123.765
zapopan,987555,20.716667,-103.4
birmingham,984336,52.466667,-1.916667
perm,982428,58.009282,56.284063
naples,981284,40.833333,14.25
srinagar,975926,34.092222,74.802222
zaria,975228,11.113236,7.725176
guatemala city,973208,14.621111,-90.526944
guatemala,973208,14.621111,-90.526944
mendoza,973047,-32.890845,-68.827171
cologne,968823,50.933333,6.95
calgary,968475,51.083333,-114.083333
port elizabeth,967722,-33.917988,25.570066
maceio,955010,-9.666667,-35.716667
cartagena,952036,10.399722,-75.514444
changzhou,949018,31.783333,119.966667
ranchi,945079,23.35,85.333333
marrakesh,942631,31.631485,-8.008281
sao goncalo,939101,-22.800278,-43.025556
monrovia,935427,6.3105556,-10.8047222
irbil,932854,36.19,44.0088889
jodhpur,921540,26.286667,73.03
sao luis,917252,-2.516667,-44.266667
chandigarh,914374,30.7343,76.7933
madurai,909988,9.933333,78.116667
krasnoyarsk,907460,56.0091,92.8628
huaibei,903039,33.974444,116.791667
cochabamba,900440,-17.3833333,-66.15
guwahati,899132,26.183333,91.733333
aba,897613,5.106576,7.366667
san jose,897460,37.3394444,-121.8938889
bulawayo,897249,-20.15,28.5833333
pingdingshan,889675,33.738472,113.301194
detroit,884941,42.3313889,-83.0458333
gwalior,882551,26.223611,78.179167
qiqihar,882364,47.340833,123.967222
klang,879887,3.033333,101.45
konya,876004,37.871354,32.484636
mbuji-mayi,874974,-6.15,23.6
vijayawada,874684,16.516667,80.616667
ottawa,874433,45.416667,-75.7
maisuru,868385,12.307222,76.649722
wenzhou,865672,27.999416,120.66682
saratov,863734,51.540556,46.008611
ogbomosho,861303,8.133333,4.266667
ahvaz,854980,31.3203,48.6693
tegucigalpa,850961,14.1,-87.2166667
turin,846489,45.05,7.666667
naucalpan,846222,19.479444,-99.238333
ulaanbaatar,844786,47.9166667,106.9166667
arequipa,844000,-16.3988889,-71.535
voronezh,840590,51.672035,39.184301
padang,840458,-0.953154,100.367659
hubli,840285,15.35,75.166667
lvov,830000,49.840661,24.030451
tucuman,828402,-26.824144,-65.2226
tangier,825316,35.780576,-5.813646
edmonton,822319,53.55,-113.5
duque de caxias,818339,-22.790321,-43.325009
jos,816876,9.916667,8.9
ilorin,814246,8.5,4.55
la paz,812819,-16.5,-68.15
barquisimeto,809564,10.0738889,-69.3227778
oslo,808690,59.916667,10.75
nanning,803788,22.816667,108.316667
johor bahru,802525,1.4655,103.7578
mombasa,799727,-4.05,39.6666667
asgabat,797900,37.95,58.3833333
jacksonville,797557,30.3319444,-81.6558333
zaporizhzhya,796213,47.822892,35.190314
marseille,792823,43.285413,5.37606
kathmandu,790612,27.7166667,85.3166667
jalandhar,785234,31.325556,75.579167
thiruvananthapuram,784223,8.506944,76.956944
sakai,782347,34.583333,135.466667
anyang,781129,36.099444,114.328889
selam,778462,11.65,78.166667
tiruchchirappalli,775551,10.805,78.685556
hohhot,774477,40.810556,111.652222
niamey,774245,13.6666667,1.7833333
niamey,774245,13.5166667,2.1166667
indianapolis,773283,39.7683333,-86.1580556
valencia,769897,39.466667,-0.366667
bogor,769328,-6.594444,106.789167
xining,767531,36.616667,101.766667
kermanshah,766742,34.314167,47.065
liuzhou,763168,24.312582,109.389157
kota,763141,25.183333,75.833333
natal,763057,-5.783333,-35.216667
bhubaneswar,762307,20.233333,85.833333
qinhuangdao,759718,39.931667,119.588333
hengyang,759602,26.888056,112.615
antalya,758603,36.908118,30.695565
cebu,758597,10.311111,123.891667
islamabad,756105,33.69,73.0551
cracow,755050,50.083333,19.916667
aligarh,753280,27.883333,78.083333
pietermaritzburg,750864,-29.616785,30.39278
taian,750340,36.185278,117.12
trujillo,750004,-8.1166667,-79.0333333
malang,746780,-7.9797,112.6304
ciudad guayana,746606,8.3533333,-62.6527778
amsterdam,745811,52.35,4.916667
kigali,745526,-1.9536111,30.0605556
bareli,745509,28.35,79.416667
teresina,744526,-5.083333,-42.816667
xinxiang,743601,35.308889,113.867222
sao bernardo do campo,743386,-23.7,-46.55
hegang,743307,47.4,130.366667
riga,742570,56.95,24.1
columbus,736836,39.9611111,-82.9988889
oyo,736113,7.85,3.933333
tainan,734314,22.9933333,120.2036111
quetta,733970,30.199004,67.009708
san francisco,732072,37.775,-122.4183333
campo grande,729164,-20.45,-54.616667
athens,729139,37.9833333,23.7333333
guadalupe,724949,25.683333,-100.25
cucuta,721406,7.893907,-72.507821
moradabad,721210,28.833333,78.783333
langfang,720119,39.509722,116.694722
ningbo,719867,29.878186,121.549453
yantai,719332,37.533333,121.4
tolyatti,718495,53.5303,49.3461
merida,717196,20.966667,-89.616667
tlalnepantla,715798,19.526944,-99.221667
jerusalem,714685,31.78,35.23
chisinau,713805,47.005556,28.8575
nouakchott,709835,18.0863889,-15.9752778
zhuzhou,709358,27.691868,113.152137
chihuahua,708292,28.633333,-106.083333
bhiwandi,707090,19.3,73.066667
jaboatao,702632,-8.116667,-35.016667
rajshahi,700206,24.3666667,88.6
zagreb,698967,45.8,16
sarajevo,696726,43.85,18.3833333
tunis,692816,36.806112,10.171078
zhangjiakou,692602,40.81,114.879444
cotonou,690584,6.35,2.4333333
zigong,689961,29.341622,104.776887
fuxin,689050,42.015556,121.658889
liaoyang,687890,41.226111,123.056111
sevilla,686647,37.382408,-5.976133
la plata,684318,-34.921454,-57.954533
bangui,684190,4.3666667,18.5833333
raipur,680066,21.233333,81.633333
austin,678368,30.2669444,-97.7427778
osasco,677869,-23.566667,-46.783333
san luis potosi,677726,22.15,-100.983333
gorakhpur,674312,26.755,83.373889
ipoh,673346,4.5841,101.0829
zhangdian,669770,36.790556,118.063333
palermo,669582,38.116667,13.366667
puyang,666322,35.702778,115.005278
nantong,666251,32.030278,120.874722
mudanjiang,665915,44.583333,129.6
santo andre,662387,-23.666667,-46.516667
aguascalientes,658193,21.883333,-102.3
agadir,656110,30.420664,-9.593161
hamilton,653637,43.25,-79.833333
enugu,653436,6.4402,7.4943
kryvyy rih,652376,47.909659,33.380438
acapulco,652160,16.85,-99.916667
joao pessoa,650896,-7.116667,-34.866667
benghazi,650629,32.1166667,20.0666667
krasnodar,649860,45.0488,38.9725
shaoyang,649452,26.965893,111.241376
guilin,649352,25.281944,110.286389
sagamihara,648811,35.553056,139.354444
colombo,648119,6.9319444,79.8477778
frankfurt,648034,50.116667,8.683333
lilongwe,646738,-13.9833333,33.7833333
wahran,646025,35.6911111,-0.6416667
mar del plata,645771,-38.002278,-57.557539
quebec,645623,46.8,-71.25
memphis,641608,35.1494444,-90.0488889
ulyanovsk,640685,54.328241,48.38657
zhanjiang,637790,21.281452,110.342713
yogyakarta,636711,-7.782778,110.360833
zaragoza,635509,41.64531,-0.884861
wroclaw,634893,51.1,17.033333
zhenjiang,632552,32.209167,119.434167
winnipeg,632069,49.883333,-97.166667
dandong,631973,40.129167,124.394722
izhevsk,631044,56.849756,53.204479
shaoguan,628749,24.8,113.583333
yancheng,628441,33.385556,120.125278
foshan,627348,23.026771,113.131483
contagem,627132,-19.916667,-44.1
bhilai,625203,21.216667,81.433333
jibuti,623891,11.595,43.1480556
saltillo,621270,25.416667,-101
fort worth,618119,32.7252778,-97.3205556
jamshedpur,616404,22.8,86.183333
haikou,615835,20.045833,110.341667
sao jose dos campos,613776,-23.183333,-45.883333
mersin,612540,36.732778,34.644167
taizhou,612356,32.493333,119.910627
queretaro,611803,20.6,-100.383333
xingtai,611739,37.063056,114.494167
baltimore,610892,39.2902778,-76.6125
glasgow,610271,55.833333,-4.25
yaroslavl,606735,57.61977,39.85536
benoni,605363,-26.190851,28.311338
hamamatsu,605105,34.7,137.733333
kochi,604751,9.966667,76.233333
jinzhou,604269,41.107778,121.141667
amravati,603885,20.933333,77.75
rotterdam,603851,51.916667,4.5
abu dhabi,603687,24.466667,54.366667
hai phong,602718,20.856111,106.682222
orumiyeh,602443,37.5553,45.0724
kirkuk,601442,35.4680556,44.3922222
barnaul,599586,53.360556,83.763611
charlotte,598351,35.2269444,-80.8433333
el paso,597181,31.7586111,-106.4863889
luancheng,597130,37.879167,114.651667
mexicali,597124,32.651944,-115.468333
hermosillo,595833,29.066667,-110.966667
rasht,594619,37.280769,49.58319
dortmund,594255,51.516667,7.45
kayseri,593164,38.732222,35.485278
abeokuta,593140,7.15,3.35
morelia,592820,19.7,-101.116667
stuttgart,591688,48.766667,9.183333
yingkou,591159,40.637318,122.502508
chimalhuacan,590165,19.416667,-98.9
zhangzhou,589831,24.513333,117.655556
vladivostok,587029,43.128056,131.901111
irkutsk,586702,52.297778,104.296389
belfast,585994,54.583333,-5.933333
genoa,585815,44.416667,8.95
blantyre,584870,-15.7833333,35
kingston,583999,18,-76.8
chiclayo,582597,-6.7736111,-79.8416667
culiacan,582489,24.799444,-107.389722
hachioji,579402,35.655833,139.323889
milwaukee,579180,43.0388889,-87.9063889
xiamen,578337,24.479794,118.081869
khabarovsk,578307,48.480833,135.092778
libreville,578156,0.3833333,9.45
kerman,577547,30.283209,57.07879
dusseldorf,577139,51.216667,6.766667
kaifeng,576915,34.744167,114.418611
essen,576914,51.45,7.016667
bengbu,576648,32.940833,117.360833
bikaner,576056,28.016667,73.3
banjarmasin,572910,-3.333333,114.583333
shihezi,572772,44.3,86.033333
bouake,572149,7.693846,-5.030307
bucaramanga,571827,7.125393,-73.119804
boston,571281,42.3583333,-71.0602778
kuching,570579,1.55,110.333333
poznan,570352,52.416667,16.966667
seattle,569369,47.6063889,-122.3308333
veracruz,568336,19.2,-96.133333
asmara,563948,15.3333333,38.9333333
sokoto,563899,13.048025,5.214285
uberlandia,563545,-18.916667,-48.3
onitsha,561106,6.14543,6.788452
funabashi,560754,35.693056,139.983333
sorocaba,558874,-23.483333,-47.45
helsinki,558457,60.175556,24.934167
malaga,557875,36.726666,-4.434802
warangal,557864,18,79.583333
denver,555981,39.7391667,-104.9841667
santiago,555911,19.45,-70.7
santiago de cuba,555878,20.0247222,-75.8219444
surakarta,555368,-7.556111,110.831667
huaiyin,555230,33.588611,119.019167
bhavnagar,555014,21.766667,72.15
bahawalpur,552765,29.4,71.683333
washington,552433,38.895,-77.0366667
ribeirao preto,551278,-21.166667,-47.8
aden,550744,12.7794444,45.0366667
jiamusi,549549,46.833333,130.35
antipolo,549541,14.5886,121.1757
salta,548288,-24.785896,-65.411664
neijiang,546854,29.583536,105.06216
bremen,546429,53.083333,8.8
sharjah,543942,25.35731,55.403304
matola,543907,-25.9622222,32.4588889
dushanbe,543105,38.56,68.7738889
sargodha,542761,32.083611,72.671111
vilnius,542381,54.6833333,25.3166667
cancun,542156,21.166667,-86.833333
portland,540513,45.5236111,-122.675
maanshan,540198,31.695678,118.498248
las vegas,540111,36.175,-115.1363889
yangzhou,539715,32.397222,119.435833
novokuznetsk,539622,53.7557,87.1099
kisangani,539164,0.516667,25.2
port said,538377,31.2666667,32.3
warri,536068,5.516667,5.75
tanggu,535298,39.021111,117.646944
oklahoma city,532950,35.4675,-97.5161111
jiangmen,532419,22.583333,113.083333
nashville,530852,36.1658333,-86.7844444
beira,530706,-19.8436111,34.8388889
guntur,530636,16.3,80.45
yueyang,528140,29.140833,113.111111
cangzhou,527681,38.316667,116.866667
san salvador,526013,13.7086111,-89.2030556
torreon,524084,25.55,-103.433333
dehra dun,522135,30.316667,78.033333
cuiaba,521961,-15.583333,-56.083333
lopez mateos,521056,19.558333,-99.261389
petaling jaya,520712,3.083333,101.65
ryazan,520177,54.6269,39.6916
hanover,519144,52.366667,9.716667
tyumen,519124,57.152222,65.527222
durgapur,518922,23.483333,87.316667
tucson,518907,32.2216667,-110.9258333
ajmer,517947,26.45,74.633333
lisbon,517798,38.716667,-9.133333
changde,517780,29.046378,111.678304
jiaozuo,517540,35.239722,113.233056
ulhasnagar,516625,19.216667,73.15
kolhapur,516184,16.7,74.216667
lipetsk,515659,52.603111,39.570762
shiliguri,515623,26.716111,88.423611
goteborg,515253,57.716667,11.966667
eskisehir,515155,39.776667,30.520556
hamadan,514134,34.799216,48.514556
penza,512607,53.200656,45.004643
tembisa,511671,-25.996363,28.226802
makati,510383,14.566667,121.033333
asuncion,508797,-25.266667,-57.666667
san nicolas de los garza,507837,25.75,-100.3
wuhu,507524,31.14607,118.57069
toluca,505903,19.288333,-99.667222
niigata,505276,37.902222,139.023611
duisburg,505271,51.433333,6.75
asansol,504320,23.683333,86.983333
arak,503673,34.091741,49.689164
astrakhan,502537,46.349683,48.040756
zhuhai,501199,22.276944,113.567778
gold coast,501175,-28.00029,153.430878
oshogbo,499444,7.766667,4.566667
shashi,498780,30.307222,112.244722
reynosa,498670,26.083333,-98.283333
makhachkala,497967,42.976378,47.502356
newcastle,497961,-32.927792,151.784485
nuremberg,497593,49.447778,11.068333
tlaquepaque,493667,20.65,-103.316667
leipzig,492637,51.3,12.333333
jamnagar,492087,22.466667,70.066667
panchiao,491891,25.0391667,121.525
aracaju,490184,-10.916667,-37.066667
san pedro sula,489506,15.5,-88.0333333
suez,488124,29.9666667,32.55
albuquerque,487378,35.0844444,-106.6505556
tomsk,485523,56.494167,84.974167
nanded,485150,19.15,77.333333
saharanpur,484921,29.966667,77.55
gulbarga,483655,17.333333,76.833333
bhatpara,483175,22.871389,88.408889
long beach,482618,33.7669444,-118.1883333
feira de santana,481926,-12.25,-38.95
shah alam,481670,3.083333,101.533333
himeji,481496,34.816667,134.7
tuxtla gutierrez,481143,16.75,-93.116667
gomel,481000,52.4416667,30.9833333
dresden,480801,51.05,13.75
hargeysa,478283,9.5833333,44.0666667
yazd,477926,31.897222,54.3675
sialkot,477537,32.510103,74.54313
kemerovo,477096,55.333333,86.083333
yichang,476725,30.77135,111.321458
the hague,476587,52.083333,4.3
cuautitlan izcalli,475199,19.646944,-99.246667
yinchuan,475101,38.468056,106.273056
skopje,474887,42,21.4333333
vereeniging,474680,-26.673133,27.926147
maoming,473251,21.65,110.9
da nang,472255,16.067778,108.220833
londrina,471836,-23.3,-51.15
jiaojiang,470804,28.680278,121.442778
matsudo,470287,35.783333,139.9
juiz de fora,470201,-21.751667,-43.352778
san juan,469958,-31.5375,-68.536389
liverpool,468946,53.416667,-3
nishinomiya,468929,34.716667,135.333333
tula,468830,54.202133,37.644294
kawaguchi,468574,35.805,139.720556
sacramento,467898,38.5816667,-121.4933333
zunyi,466292,27.543056,106.823056
belford roxo,466101,-22.761995,-43.404654
jiaxing,466101,30.752198,120.749997
jammu,465600,32.733333,74.866667
fresno,465183,36.7477778,-119.7713889
lyon,463700,45.748457,4.846711
kananga,463556,-5.895833,22.417778
bloemfontein,463084,-29.121065,26.214003
xiangfan,462956,32.042203,112.144794
gdansk,461865,54.36085,18.658291
calabar,461832,4.9517,8.322
panzhihua,461513,26.547902,101.705386
joinville,461312,-26.3,-48.833333
zamboanga,460879,6.910255,122.071715
mixco,460576,14.633333,-90.606389
antwerp,459805,51.216667,4.416667
new orleans,459336,29.9544444,-90.075
ichikawa,458249,35.719722,139.924722
ujjain,457395,23.183333,75.766667
kirov,457387,58.596654,49.660068
kota kinabalu,457375,5.9749,116.0724
durango,457154,24.033333,-104.666667
niteroi,456461,-22.90214,-43.130301
hengshui,456356,37.732222,115.701111
chitungwiza,456206,-17.9938889,31.0480556
santa fe,456044,-31.629484,-60.701036
pontianak,455226,-0.033333,109.333333
leeds,455124,53.8,-1.583333
sao joao de meriti,454855,-22.798614,-43.360894
bacolod,453954,10.6677,122.9533
manado,451910,1.487,124.8455
jining,450327,35.405,116.581389
constantine,450126,36.365,6.6147222
mesa,449878,33.4222222,-111.8219444
urfa,449785,37.16708,38.793919
cleveland,449514,41.4994444,-81.6955556
virginia beach,449386,36.8527778,-75.9783333
chengde,449325,40.770278,118.169722
xuchang,449258,34.016667,113.816667
sheffield,447048,53.366667,-1.5
cheboksary,446786,56.132222,47.251944
cagayan de oro,445212,8.481111,124.643056
boksburg,445182,-26.214953,28.254732
rajpur,444549,22.4125,88.418056
amagasaki,442176,34.716667,135.416667
malatya,442046,38.350183,38.316669
kansas city,442028,39.1141667,-94.6272222
kansas city,442028,39.0997222,-94.5783333
dasmarinas,441878,14.329444,120.936667
pereira,440123,4.813333,-75.696111
carrefour,439590,18.5383333,-72.4122222
iquitos,439114,-3.7480556,-73.2472222
mawlamyine,438907,16.4913889,97.6255556
baoji,438295,34.365907,107.359045
kurashiki,437585,34.583333,133.766667
garoua,436932,9.3,13.4
mwanza,436811,-2.5166667,32.9
kousseri,435986,12.0783333,15.0308333
tirunelveli,435882,8.733333,77.7
edinburgh,435794,55.95,-3.2
malegaon,435397,20.55,74.533333
matamoros,435159,25.883333,-97.5
kaliningrad,434959,54.706493,20.510951
ananindeua,433956,-1.366667,-48.383333
balikpapan,433939,-1.283333,116.833333
dadiangas,432571,6.112778,125.171667
namangan,432479,40.9952778,71.6725
katsina,432179,12.989428,7.600628
welkom,432070,-27.986442,26.706612
santa marta,431788,11.240791,-74.19904
el mahalla el kubra,431088,30.9761111,31.1669444
bristol,430714,51.45,-2.583333
yokosuka,428999,35.283611,139.667222
akola,428892,20.733333,77
belgaum,428756,15.866667,74.5
luqiao,427890,28.580835,121.377148
bryansk,427241,53.252089,34.371666
xalapa,425166,19.533333,-96.916667
barcelona,424819,10.1333333,-64.7
chaozhou,424787,23.665129,116.637864
gaya,423737,24.783333,85
bratislava,423737,48.15,17.1166667
atlanta,422908,33.7488889,-84.3880556
likasi,422726,-10.981389,26.733333
luxor,422408,25.6833333,32.65
ibague,421689,4.438889,-75.232222
east london,421562,-33.011051,27.910049
shaoxing,421283,30.011019,120.571528
erzurum,420919,39.908611,41.276944
ivanovo,420843,56.997192,40.971392
akure,420623,7.25256,5.193118
asyut,420614,27.1827778,31.1827778
kenitra,420534,34.261008,-6.580203
jambi,420391,-1.6,103.616667
korba,419326,22.35,82.683333
bokaro,418578,23.783333,85.966667
san juan,418140,18.4683333,-66.1061111
sukkur,417923,27.705164,68.857383
auckland,417910,-36.866667,174.766667
mangaluru,417423,12.863889,74.835278
luohe,417356,33.571667,114.035278
shymkent,414059,42.3,69.6
hsinchu,413683,24.8047222,120.9713889
szczecin,413658,53.439531,14.593891
omaha,413487,41.2586111,-95.9375
magnitogorsk,413357,53.418611,59.047222
jhansi,412968,25.433333,78.583333
florianopolis,412731,-27.583333,-48.566667
santos,411411,-23.95,-46.333333
toulouse,411145,43.599516,1.433188
maturin,410967,9.75,-63.1766667
ardabil,410773,38.2498,48.2933
murcia,410364,37.987041,-1.130042
chaoyang,410005,41.570278,120.458611
kursk,409435,51.737329,36.187349
kitchener,409111,43.45,-80.5
panama,408188,8.9666667,-79.5333333
shiyan,408055,32.6475,110.778056
santiago del estero,407636,-27.795112,-64.261489
bien hoa,407224,10.95,106.816667
resistencia,406967,-27.46056,-58.983886
ribeirao das neves,406840,-19.783333,-44.1
hirakata,406335,34.8,135.633333
denpasar,405959,-8.65,115.216667
tanta,404934,30.7911111,30.9980556
newcastle,404849,-27.757956,29.931803
jixi,403759,45.3,130.966667
zanzibar,403670,-6.1666667,39.1833333
tonala,401616,20.616667,-103.233333
kassala,401514,15.4558333,36.3988889
kitwe,400955,-12.8166667,28.2
tver,400216,56.860491,35.876027
machida,399971,35.540278,139.450833
yangjiang,399735,21.85,111.966667
tiruppur,397554,11.1,77.35
keelung,397516,25.1313889,121.7375
villa nueva,397158,14.526944,-90.5875
manchester,395516,53.5,-2.216667
maracay,395412,10.2469444,-67.5958333
vila velha,394937,-20.333333,-40.283333
weifang,394732,36.71,119.101944
fujisawa,394630,35.341944,139.47
oakland,394579,37.8044444,-122.2697222
ndola,394559,-12.9666667,28.6333333
samsun,394261,41.286667,36.33
kollam,394198,8.880556,76.591667
serra,394160,-20.116667,-40.3
tallinn,394023,59.4338889,24.7280556
bamenda,393871,5.9333333,10.1666667
bello,392945,6.337315,-75.557951
xinpu,392444,34.599722,119.159444
sandakan,392332,5.8402,118.1179
qandahar,391230,31.613323,65.710126
diadema,390641,-23.7,-46.616667
corrientes,390481,-27.480596,-58.834099
samut prakan,388921,13.600417,100.596778
nampula,388526,-15.1197222,39.2647222
bissau,388094,11.85,-15.5833333
iloilo,387748,10.696944,122.564444
campos,387422,-21.75,-41.3
bochum,387061,51.483333,7.216667
misratah,386120,32.3783333,15.0905556
maua,386077,-23.666667,-46.45
abomey-calavi,385823,6.45,2.35
toyonaka,384463,34.783333,135.466667
honolulu,384241,21.3069444,-157.8583333
betim,384038,-19.966667,-44.216667
fukuyama,383302,34.483333,133.366667
miami,382894,25.7738889,-80.1938889
pasto,382242,1.213611,-77.281111
tulsa,382005,36.1538889,-95.9925
caxias do sul,381277,-29.1689,-51.1785
nizhniy tagil,381121,57.919444,59.965
huancayo,380098,-12.0666667,-75.2333333
dezhou,379555,37.448611,116.2925
palma,378884,39.574337,2.655222
krugersdorp,378833,-26.092835,27.790701
panihati,378741,22.694167,88.374444
chungho,378389,24.9944444,121.4727778
toyohashi,378377,34.766667,137.383333
cimahi,378027,-6.698333,107.275278
brno,377407,49.2,16.633333
delmas,377194,18.5447222,-72.3027778
zhoukou,377061,33.633333,114.633333
makiyivka,376607,48.047816,37.925764
kahramanmaras,376247,37.584705,36.926405
nonthaburi,375826,13.862167,100.513417
taoyuan,375366,24.9869444,121.3055556
tirana,374801,41.3275,19.8188889
sao jose do rio preto,374706,-20.8,-49.383333
kaunas,374655,54.9,23.9
xuanhua,373422,40.610278,115.044722
colorado springs,373072,38.8338889,-104.8208333
seremban,372931,2.7297,101.9381
ife,372191,7.466667,4.566667
pingxiang,372123,27.616667,113.85
van,371911,38.492393,43.38311
bobo dioulasso,370809,11.2,-4.3
tel aviv-yafo,370480,32.067778,34.764722
abadan,370220,30.3392,48.3043
minneapolis,367773,44.98,-93.2636111
arlington,367535,32.7355556,-97.1077778
ahmadnagar,367168,19.083333,74.733333
bologna,367168,44.483333,11.333333
dhule,367010,20.9,74.783333
olinda,366761,-8.016667,-34.85
bydgoszcz,366452,53.127062,18.019987
kuantan,366253,3.8077,103.326
petare,365959,10.4833333,-66.8166667
xico,365793,19.266667,-98.933333
las palmas,365418,28.099727,-15.41343
tetouan,365355,35.571091,-5.372424
larkana,364168,27.555082,68.214137
christchurch,363925,-43.533333,172.633333
wuppertal,363240,51.266667,7.183333
stavropol,363069,45.0428,41.9734
villahermosa,362416,17.983333,-92.916667
toyota,362386,35.083333,137.15
zhaoqing,361969,23.051157,112.459722
bhagalpur,361587,25.25,87
shekhupura,361408,31.713056,73.978333
carapicuiba,361120,-23.516667,-46.833333
sanchung,360829,25.0630556,121.4638889
tamale,360644,9.4,-0.8333333
ulan-ude,360281,51.826053,107.609794
lublin,360044,51.25,22.566667
neuquen,359037,-38.951606,-68.059102
anqing,358661,30.509167,117.050556
taraz,358167,42.9,71.366667
manizales,357819,5.06889,-75.517383
sanmenxia,357767,34.774722,111.181389
zanjan,357489,36.6736,48.4787
iwaki,357313,37.05,140.883333
bacoor,356987,14.459027,120.929034
asahikawa,356615,43.767778,142.370278
ambon,355607,-3.695426,128.181405
tabuk,355469,28.399804,36.571505
wichita,355244,37.6922222,-97.3372222
samarinda,355223,-0.5,117.15
mazatlan,354730,23.216667,-106.416667
takatsuki,354472,34.85,135.616667
thessaloniki,354291,40.6402778,22.9438889
neiva,352859,2.927299,-75.281885
okazaki,352364,34.916667,137.15
apodaca,352246,25.766667,-100.2
vinnytsya,352113,49.232776,28.480968
anshun,351936,26.25,105.933333
suita,351634,34.75,135.533333
tema,351556,5.6166667,-0.0166667
ixtapaluca,351015,19.316667,-98.883333
muzaffarnagar,349741,29.466667,77.683333
nuevo laredo,349562,27.5,-99.516667
bilbao,349270,43.260919,-2.938764
sanandaj,349200,35.3144,46.9923
latur,348994,18.4,76.583333
campina grande,348943,-7.216667,-35.883333
camaguey,347572,21.3808333,-77.9169444
florence,347194,43.766667,11.25
london,346774,42.983333,-81.25
chifeng,346654,42.268333,118.963611
zurich,346185,47.366667,8.55
astana,345621,51.181111,71.427778
belgorod,345293,50.610743,36.580152
kusti,345102,13.1666667,32.6666667
qitaihe,345033,45.8,130.85
doha,344939,25.286667,51.533333
turmero,344746,10.2333333,-67.4833333
arkhangelsk,344603,64.5401,40.5433
boma,344522,-5.85,13.05
cuernavaca,343785,18.916667,-99.25
kurgan,343132,55.45,65.333333
santa ana,343054,33.7455556,-117.8669444
soledad,342562,10.918433,-74.76459
zhongshan,342306,22.520576,113.382318
piracicaba,342216,-22.716667,-47.633333
buraydah,341981,26.325986,43.974966
nice,341621,43.713644,7.25952
jhang,341311,31.306773,72.32814
arusha,341155,-3.3666667,36.6833333
ambattur,341078,13.076667,80.088611
iseyin,340707,7.966667,3.6
koriyama,340563,37.4,140.383333
kashiwa,340228,35.854444,139.968889
aksu,340020,41.123056,80.264444
irapuato,339568,20.683333,-101.35
tokorozawa,339441,35.786389,139.467778
leicester,339240,52.633333,-1.133333
leicester,339240,52.664913,-1.034894
kaluga,338982,54.529302,36.275415
macapa,338937,0.033333,-51.05
raleigh,338759,35.7719444,-78.6388889
kawagoe,337937,35.908611,139.485278
tungi,337620,23.89,90.4058333
bellary,336710,15.15,76.933333
itaquaquecetuba,336686,-23.483333,-46.35
san jose,335056,9.933333,-84.083333
bauru,335031,-22.316667,-49.066667
fengshan,334443,22.6333333,120.35
tieling,333907,42.293056,123.841389
anaheim,333689,33.8352778,-117.9136111
qazvin,333652,36.2797,50.0049
orel,333310,52.965076,36.078495
muzaffarpur,333235,26.116667,85.4
kamarhati,332997,22.671111,88.374722
wad madani,332752,14.4,33.5333333
tucheng,332405,24.9833333,121.4333333
vinnitsa,332400,49.232776,28.480968
montes claros,332384,-16.716667,-43.866667
plovdiv,332088,42.15,24.75
khorramshahr,331254,30.4397,48.1664
cariacica,330681,-20.266667,-40.416667
mathura,330543,27.5,77.683333
bujumbura,330539,-3.3761111,29.36
khorramabad,329847,33.487778,48.355833
soyapango,329704,13.7347222,-89.1513889
patiala,329248,30.326667,76.400278
pavlodar,329014,52.3,76.95
asfi,328883,32.299392,-9.237181
chandrapur,328377,19.95,79.3
pacet,328324,-6.750278,107.046667
canoas,328297,-29.933333,-51.183333
sochi,327613,43.599167,39.725689
bielefeld,327198,52.033333,8.533333
yanji,326957,42.771389,129.423333
piura,326592,-5.2,-80.6333333
bhilwara,326454,25.35,74.633333
moji das cruzes,325753,-23.516667,-46.183333
thrissur,325140,10.516667,76.216667
brahmapur,324753,19.316667,84.783333
tampa,324465,27.9472222,-82.4586111
sao vicente,324464,-23.966667,-46.383333
canberra,324025,-35.27603,149.13435
volzhskiy,323298,48.785832,44.77973
villavicencio,321721,4.142002,-73.626645
jundiai,321595,-23.183333,-46.866667
san miguelito,321516,9.0333333,-79.5
smolensk,320994,54.7818,32.0401
saint louis,320916,38.6272222,-90.1977778
thies,320721,14.8,-16.9333333
pelotas,320680,-31.766667,-52.333333
kherson,320476,46.655814,32.6178
shahjahanpur,320466,27.883333,79.916667
chimbote,320119,-9.0833333,-78.6
akita,320071,39.716667,140.116667
maroua,319974,10.5955556,14.3247222
pachuca,319593,20.116667,-98.733333
anapolis,319592,-16.333333,-48.966667
shimoga,319577,13.922222,75.573611
pittsburgh,319494,40.4405556,-79.9961111
samarkand,319404,39.6541667,66.9597222
murmansk,319266,68.979174,33.092514
holguin,319114,20.8872222,-76.2630556
oskemen,319082,49.978889,82.610278
eslamshahr,318855,35.5605,51.2346
shangrao,318769,28.453221,117.968604
mataram,318712,-8.583333,116.116667
andijon,318439,40.6541667,72.3575
iasi,318014,47.166667,27.6
poltava,317845,49.593727,34.540733
koshigaya,317443,35.883333,139.783333
vladikavkaz,317372,43.036667,44.667778
hrodna,317366,53.6813889,23.8147222
katowice,317316,50.258415,19.027545
rohtak,317266,28.9,76.566667
ostrava,317136,49.811852,18.255282
baicheng,316970,45.616667,122.816667
cluj-napoca,316749,46.766667,23.6
calamba,316633,14.2118,121.1655
bauchi,316173,10.313441,9.843273
valladolid,315859,41.655181,-4.72372
armenia,315332,4.533889,-75.681111
timisoara,315055,45.749444,21.227222
tambun,314271,-6.105278,107.222222
bonn,314081,50.733333,7.1
soacha,313950,4.579368,-74.216819
ikorodu,313468,6.615483,3.508673
posadas,313438,-27.367077,-55.896078
coacalco,313419,19.631667,-99.110278
denizli,313402,37.774167,29.0875
jinxi,313247,40.764317,120.85327
cusco,313210,-13.5183333,-71.9780556
vitoria,312662,-20.316667,-40.35
tongling,312588,30.933333,117.816667
cherepovets,311854,59.133333,37.9
pucallpa,311793,-8.3825,-74.5380556
maringa,311727,-23.416667,-51.916667
cordoba,311186,37.89155,-4.772748
jingdezhen,310565,29.2947,117.207887
guaruja,310430,-24,-46.266667
vladimir,310027,56.136547,40.396576
antofagasta,309835,-23.65,-70.4
botshabelo,309810,-29.123036,26.773654
bengkulu,309759,-3.8,102.266667
mannheim,309626,49.488333,8.464722
tampico,309015,22.3,-97.85
tampico,309015,22.216667,-97.85
coventry,308314,52.416667,-1.55
chita,308294,52.031712,113.500867
general escobedo,308284,25.816667,-100.333333
valledupar,308242,10.46314,-73.253224
varna,307952,43.2166667,27.9166667
chernihiv,307683,51.505507,31.284875
tumkur,307384,13.342222,77.101667
catania,307331,37.5,15.1
toledo,306974,41.6638889,-83.5552778
tawau,306497,4.2498,117.8871
dongying,306450,37.456389,118.485556
firozabad,306439,27.15,78.416667
el faiyum,306421,29.3077778,30.84
cincinnati,306382,39.1619444,-84.4569444
porto velho,306206,-8.766667,-63.9
celaya,305913,20.516667,-100.816667
brakpan,305702,-26.236561,28.369378
nizamabad,305472,18.666667,78.116667
kulti,305434,23.733333,86.85
franca,305047,-20.533333,-47.4
rajamahendri,304838,16.983333,81.783333
craiova,304144,44.316667,23.8
constanta,303401,44.183333,28.65
saransk,303397,54.1838,45.1749
bari,303049,41.133333,16.85
kingston upon hull,302297,53.716667,-0.333333
batman,302204,37.887378,41.132208
cardiff,302142,51.5,-3.2
barddhaman,301754,23.240556,87.869444
gujrat,301595,32.572842,74.078969
kashan,301107,33.9888,51.4773
brest,300716,52.1,23.7
mardan,300545,34.201946,72.052539
surgut,300371,61.25,73.416667
cilegon,299790,-6.0144,106.0542
aurora,299780,39.7294444,-104.8313889
bradford,299310,53.783333,-1.75
parana,299257,-31.731967,-60.523802
angeles,298948,15.1406,120.591
jember,298620,-8.1705,113.702
kasugai,298591,35.233333,136.983333
barasat,298270,22.684167,88.441111
cherkasy,297566,49.428536,32.06207
riverside,297554,33.9533333,-117.3952778
akashi,297281,34.633333,134.983333
bally,297001,22.646111,88.340278
hisar,296456,29.166667,75.716667
rampur,296447,28.816667,79.033333
irbid,296050,32.555556,35.85
yokkaichi,295843,34.966667,136.616667
luzhou,295056,28.872391,105.44049
vologda,294892,59.2187,39.8886
vina del mar,294553,-33.008056,-71.519722
sumy,294454,50.921597,34.800294
galati,294088,45.45,28.05
blumenau,293955,-26.9222,-49.0615
foz do iguacu,293526,-25.55,-54.583333
kakinada,292956,16.933333,82.216667
panipat,292828,29.388889,76.968056
semey,292795,50.411111,80.2275
makurdi,292664,7.7411,8.5121
ponta grossa,292179,-25.083333,-50.15
minna,291930,9.613889,6.556944
bialystok,291855,53.133333,23.15
mbeya,291672,-8.9,33.45
bakersfield,291389,35.3733333,-119.0177778
ciudad bolivar,291170,8.1222222,-63.5497222
tambov,290936,52.731689,41.443262
bafoussam,290798,5.4666667,10.4166667
kasur,290728,31.115556,74.446667
paulista,289977,-7.95,-34.883333
limeira,289671,-22.561667,-47.402778
parbhani,289652,19.266667,76.783333
kaolack,289633,14.15,-16.0666667
victoria,289625,48.433333,-123.35
stockton,289580,37.9577778,-121.2897222
beihai,289568,21.483333,109.1
huizhou,289201,23.083333,114.4
mandaue,288898,10.323611,123.922222
hue,287228,16.466667,107.6
darbhanga,287180,26.166667,85.9
vigo,286585,42.232823,-8.722637
rangpur,285586,25.75,89.25
viamao,285274,-30.083333,-51.033333
kuala terengganu,285091,5.3302,103.1408
ismailia,284851,30.5833333,32.2666667
karlsruhe,284786,49.004722,8.385833
nantes,284677,47.216509,-1.552379
barinas,284305,8.6291667,-70.2072222
port moresby,283733,-9.4647222,147.1925
ede,283728,7.733333,4.433333
ichihara,283537,35.516667,140.083333
nha trang,283452,12.25,109.183333
suzano,283319,-23.533333,-46.333333
alwar,283248,27.566667,76.6
cainta,283177,14.5786,121.1222
bahia blanca,282950,-38.719595,-62.272432
nalchik,282916,43.498056,43.618889
bilaspur,282736,22.083333,82.15
palu,282461,-0.8917,119.8707
valparaiso,282450,-33.047778,-71.601111
kupang,282421,-10.166667,123.583333
zhytomyr,282190,50.264868,28.676691
itagui,281858,6.171944,-75.611389
gebze,281585,40.802758,29.430684
narsingdi,281110,23.9208333,90.7180556
tacna,280996,-18.0055556,-70.2483333
tepic,280602,21.5,-104.9
chuzhou,280582,32.321944,118.297778
barisal,280437,22.7,90.3666667
corpus christi,280382,27.8002778,-97.3961111
ichinomiya,280333,35.3,136.8
newark,280123,40.7355556,-74.1727778
buffalo,279557,42.8863889,-78.8786111
santa teresa,279424,10.2313889,-66.6636111
kota bahru,279343,6.133275,102.238603
taganrog,279060,47.23617,38.896878
horlivka,278548,48.346981,38.054189
windsor,278013,42.333333,-83.033333
ilesha,277922,8.916667,3.416667
kostroma,277658,57.766468,40.926864
khomeynishahr,277355,32.700175,51.521134
jujuy,277150,-24.194565,-65.297116
cuenca,276964,-2.8833333,-78.9833333
owo,276593,7.196195,5.586806
sukabumi,276431,-6.918056,106.926667
safaqis,276293,34.740556,10.760278
anchorage,276263,61.2180556,-149.9002778
brasov,276089,45.633333,25.583333
mokolo,275750,10.7402778,13.8027778
hakodate,275733,41.775833,140.736667
hsintien,275698,24.95,121.5333333
komsomolsk-na-amure,275168,50.551986,137.015244
caucaia,275023,-3.7,-38.65
saint paul,274792,44.9444444,-93.0930556
kashi,274717,39.454722,75.979722
ichalkaranji,274405,16.7,74.466667
strasbourg,273506,48.600381,7.787355
yao,273216,34.616667,135.6
herat,272880,34.348167,62.199673
guantanamo,272808,20.1444444,-75.2091667
baguio,272732,16.416389,120.593056
petropolis,272694,-22.510833,-43.184444
munster,272452,51.966667,7.633333
monteria,272424,8.747984,-75.881428
wiesbaden,272337,50.083333,8.25
lexington-fayette,272079,38.0497222,-84.4586111
gelsenkirchen,271647,51.516667,7.05
kakogawa,271636,34.766667,134.85
tasikmalaya,271160,-7.3274,108.2207
bijapur,271087,16.833333,75.7
san pedro,270223,14.3595,121.0473
haifa,269961,32.815556,34.989167
windhoek,268129,-22.57,17.0836111
iligan,267854,8.230833,124.236111
tshikapa,267508,-6.416667,20.8
sterlitamak,267235,53.624619,55.950148
utrecht,267044,52.093813,5.119095
halifax,266012,44.65,-63.6
yingcheng,265886,30.95,113.55
wuzhou,265846,23.483333,111.316667
aizawl,265353,23.724444,92.7175
hulan ergi,265344,47.204167,123.633333
petrozavodsk,265027,61.796131,34.349295
monchengladbach,264969,51.2,6.433333
umuahia,264680,5.526269,7.489589
sivas,264163,39.748333,37.016111
mianyang,264136,31.459339,104.754235
ibaraki,263408,34.816667,135.566667
oaxaca,262574,17.05,-96.716667
gijon,262573,43.535731,-5.661519
witbank,262514,-25.871331,29.233234
aqtobe,262471,50.298056,57.181389
jalna,262055,19.833333,75.883333
augsburg,261842,48.366667,10.883333
malmo,261549,55.6,13
dewas,261245,22.966667,76.066667
sincelejo,261190,9.304722,-75.397778
tongliao,261110,43.6125,122.265278
wollongong,260918,-34.424,150.893448
uberaba,260847,-19.75,-47.916667
stoke-on-trent,260420,53,-2.183333
baranagar,260097,22.643333,88.365278
bratsk,259994,56.1497,101.6085
nakuru,259934,-0.2833333,36.0666667
can tho,259608,10.033333,105.783333
venice,259126,45.438611,12.326667
hiratsuka,259056,35.323056,139.342222
jiujiang,258807,29.60794,115.887205
jining,258757,41.0275,113.105833
obregon,258174,27.483333,-109.933333
pekalongan,257973,-6.8886,109.6753
cumana,257821,10.4666667,-64.1666667
satna,257805,24.583333,80.833333
yining,257671,43.881111,81.245833
rio branco,257645,-9.966667,-67.8
etawah,257472,26.7769,79.0239
cascavel,257174,-24.95,-53.466667
ondo,257023,7.1,4.833333
chimoio,256992,-19.1163889,33.4833333
tarsus,256617,36.91876,34.878404
ensenada,256577,31.866667,-116.616667
dzerzhinsk,256540,56.241432,43.455393
damaturu,255913,11.747,11.9608
sari,255416,36.563319,53.060087
ziguinchor,255391,12.5833333,-16.2719444
durg,255310,21.183333,81.283333
ljubljana,255115,46.0552778,14.5144444
rivne,255104,50.623079,26.22743
ikot ekpene,254821,5.181475,7.934195
heze,254602,35.243056,115.441111
santa catarina,254483,25.683333,-100.466667
cirebon,254314,-6.7063,108.557
pristina,254023,42.666667,21.166667
novo hamburgo,253846,-29.683333,-51.133333
gdynia,253730,54.5,18.55
zhumadian,253536,32.979444,114.029444
mutare,253449,-18.9666667,32.6666667
plano,253372,33.0197222,-96.6986111
naihati,253245,22.902778,88.416944
richards bay,253156,-28.775417,32.054005
vitoria da conquista,253144,-14.85,-40.85
laohekou,253112,32.385833,111.667778
talcahuano,252969,-36.716667,-73.116667
wolverhampton,252792,52.583333,-2.133333
dire dawa,252347,9.593056,41.866111
floridablanca,252271,7.062222,-73.08644
suihua,252245,46.640556,126.996944
barueri,251999,-23.516667,-46.883333
borujerd,251976,33.8973,48.7516
qarchak,251857,35.439444,51.568889
taubate,251647,-23.033333,-45.55
nanyang,251532,32.994722,112.532778
los reyes,251179,19.35,-98.966667
san fernando,251157,15.0286,120.6898
aachen,251104,50.770833,6.105278
morogoro,250914,-6.8166667,37.6666667
governador valadares,250882,-18.85,-41.933333
tirupati,250849,13.65,79.416667
banda aceh,250796,5.5577,95.3222
sonipat,250538,28.983333,77.016667
santa clara,250518,22.1666667,-79.7666667
iwo,250459,7.633333,4.183333
gombe,250278,10.28969,11.167288
butuan,250200,8.949167,125.543611
avadi,250066,13.115556,80.101667
praia grande,250032,-24,-46.4
san bernardo,249856,-33.6,-70.716667
varzea grande,249766,-15.65,-56.133333
porto,249630,41.149606,-8.610993
volta redonda,249584,-22.533333,-44.116667
kirovohrad,249453,48.513199,32.259702
santa maria,249224,-29.683333,-53.8
ganzhou,249071,25.85,114.933333
granada,248942,37.178354,-3.599201
formosa,248756,-26.177534,-58.178139
jimeta,248166,9.283333,12.466667
czestochowa,248125,50.796455,19.124088
palmira,247991,3.539444,-76.303611
oshawa,247989,43.9,-78.866667
juliaca,247949,-15.5,-70.1333333
ica,247687,-14.0680556,-75.7255556
sagar,247359,23.833333,78.716667
plymouth,247298,50.396389,-4.138611
udon thani,247232,17.415667,102.785889
verona,247082,45.45,11
orsk,246839,51.204873,58.566848
vanderbijlpark,246821,-26.711711,27.837949
nottingham,246655,52.966667,-1.166667
chemnitz,246654,50.833333,12.916667
san cristobal,246620,7.7669444,-72.225
rizhao,246387,35.390278,119.545833
saint petersburg,246316,27.7705556,-82.6794444
norfolk,246216,36.8466667,-76.2855556
southampton,246201,50.9,-1.4
mau,246074,25.941667,83.561111
shimonoseki,245789,33.95,130.95
nicolas romero,245394,19.621944,-99.313056
brunswick,245259,52.266667,10.533333
neyagawa,245112,34.75,135.633333
gorgan,244955,36.838659,54.434749
nizhnevartovsk,244940,60.9344,76.5531
hebi,244662,35.899167,114.1925
bago,244407,17.3333333,96.4833333
bihar,244256,25.183333,85.516667
baruta,244216,10.4333333,-66.8833333
trabzon,244209,41.005,39.726944
manisa,244095,38.612018,27.426465
reading,244071,51.433333,-1
louisville,243639,38.2541667,-85.7594444
santa luzia,243506,-19.783333,-43.866667
angarsk,243161,52.536667,103.886389
hapur,242944,28.716667,77.783333
berbera,242363,10.4355556,45.0163889
yibin,242111,28.699702,104.549173
lincoln,242072,40.8,-96.6666667
novorossiysk,241860,44.724386,37.767524
tehuacan,241437,18.45,-97.383333
lapu-lapu,241391,10.310278,123.949444
aswan,241282,24.0875,32.8988889
farrukhabad,241176,27.4,79.566667
takasaki,240860,36.333333,139.016667
anantapur,240469,14.683333,77.6
buenaventura,240391,3.880099,-77.031164
yungkang,240214,22.9333333,121.1
glendale,240112,33.5386111,-112.1852778
fuchu,240082,35.666667,139.483333
fuji,240017,35.15,138.65
krefeld,239908,51.333333,6.566667
henderson,239757,36.0397222,-114.9811111
xiantao,239406,30.383333,113.4
hachinohe,239047,40.505,141.491944
batangas,238907,13.7567,121.0584
montpellier,238887,43.61092,3.87723
gravatai,238782,-29.9426,-50.9933
kurume,238199,33.316667,130.516667
temuco,238131,-38.733333,-72.6
messina,237956,38.183333,15.566667
jersey city,237681,40.7280556,-74.0780556
wah,237584,33.797995,72.695703
sasebo,237446,33.159167,129.722778
aryanah,237401,36.860117,10.193371
uruapan,237319,19.416667,-102.066667
pathein,237119,16.7833333,94.7333333
tegal,237110,-6.8694,109.1402
ratlam,236868,23.316667,75.066667
kosice,236563,48.7166667,21.25
chernivtsi,236249,48.291488,25.940341
dera ghazi khan,236162,30.056142,70.634766
a coruna,236010,43.366609,-8.406812
yuci,235929,37.680278,112.731944
sahiwal,235765,30.666667,73.1
qena,235390,26.17,32.7272222
caruaru,235375,-8.283333,-35.966667
kendari,235329,-3.945,122.498889
kiel,235264,54.333333,10.133333
kediri,235171,-7.816667,112.016667
boa vista,235159,2.816667,-60.666667
derby,235029,52.933333,-1.5
georgetown,235017,6.8,-58.1666667
ibb,234992,13.9666667,44.1833333
kismayo,234884,-0.3666667,42.5333333
turkmenabat,234828,39.1013889,63.575
nizhnekamsk,234301,55.636571,51.824474
chandler,234297,33.3061111,-111.8405556
verwoerdburg,233394,-25.840795,28.176102
kremenchuk,232741,49.072005,33.427482
linfen,232566,36.088889,111.518889
halle,232452,51.5,12
ganganagar,231855,29.916667,73.883333
greensboro,231769,36.0725,-79.7922222
chigasaki,231660,35.326111,139.403889
birmingham,231621,33.5205556,-86.8025
gent,231493,51.05,3.716667
taytay,231475,14.5678,121.1394
soka,231449,35.820278,139.804444
ngaoundere,231376,7.3166667,13.5833333
gandhinagar,231314,23.216667,72.683333
coatzacoalcos,230727,18.15,-94.416667
qostanay,230282,53.166667,63.583333
syktyvkar,230142,61.676422,50.809941
nukus,230020,42.4530556,59.6102778
sao jose dos pinhais,229988,-25.516667,-49.216667
cibadak,229745,-6.536389,106.770278
fort wayne,229715,41.1305556,-85.1288889
nawabshah,229590,26.248334,68.409554
espoo,229528,60.216667,24.666667
bharatpur,229400,27.216667,77.483333
atsugi,229203,35.438889,139.359722
tiruvottiyur,229019,13.157778,80.304167
uitenhage,228924,-33.75757,25.397099
sungai petani,228898,5.646997,100.487724
ploiesti,228853,44.95,26.016667
binjai,228794,3.564,98.724
karimnagar,228770,18.433333,79.15
ipatinga,228750,-19.5,-42.533333
lucena,228738,13.9348,121.6127
gomez palacio,228585,25.566667,-103.5
rach gia,228365,10.016667,105.083333
zelenograd,228298,56.001111,37.209167
miri,228227,4.4148,114.0089
sumare,227982,-22.8,-47.283333
nassau,227936,25.0833333,-77.35
san lorenzo,227898,-25.333333,-57.533333
iquique,227501,-20.22083,-70.14306
pondicherry,227434,11.93,79.83
mingaora,227423,34.77584,72.36249
sosnowiec,227295,50.272243,19.155039
staryy oskol,226980,51.296667,37.841667
liaocheng,226930,36.443889,115.964722
raurkela,226886,22.2,84.883333
gusau,226873,12.162784,6.661348
radom,226794,51.400963,21.15809
majalaya,226720,-7.0485,107.7631
arhus,226716,56.153423,10.22553
shrirampur,226338,22.752778,88.342222
ranghulu,226298,46.65,124.866667
sabzevar,226208,36.212598,57.681906
huambo,226177,-12.776111,15.739167
raichur,225981,16.2,77.366667
scottsdale,225796,33.5091667,-111.8983333
mubi,225721,10.267607,13.26436
bukavu,225431,-2.508333,28.860833
juazeiro do norte,225234,-7.2,-39.333333
karnal,225064,29.683333,76.983333
tanga,224891,-5.0666667,39.1
tianmen,224871,30.65,113.1
nacala,224853,-14.5427778,40.6727778
sucre,224846,-19.0430556,-65.2591667
hialeah,224840,25.8572222,-80.2783333
vitoria,224774,42.85,-2.666667
madison,224625,43.0730556,-89.4011111
magdeburg,224428,52.166667,11.666667
narayanganj,223773,23.6233333,90.5011111
okara,223714,30.808056,73.445833
ara,223700,25.566667,84.666667
tongchuan,223603,34.898799,108.950562
imphal,223537,24.816667,93.95
baton rouge,223349,30.4505556,-91.1544444
xintai,222459,35.900556,117.751944
badalona,222413,41.447145,2.244789
graz,222326,47.066667,15.45
ulubaria,222293,22.471667,88.113611
ikire,222174,7.35,4.183333
embu,221737,-23.65,-46.85
shakhty,221315,47.709106,40.214434
blagoveshchensk,221298,50.266667,127.533333
banja luka,221100,44.7758333,17.1855556
neyshabur,220954,36.213288,58.795755
oberhausen,220916,51.466667,6.85
wuxue,220661,29.850578,115.552504
paramaribo,220306,5.8333333,-55.1666667
cabanatuan,220095,15.4867,120.9676
mirzapur,220051,25.15,82.583333
olongapo,219999,14.8373,120.2868
takarazuka,219790,34.8,135.35
kharagpur,219686,22.333333,87.333333
dhanbad,219660,23.8,86.45
thanjavur,219591,10.8,79.15
ageo,219405,35.969722,139.588611
bordeaux,219311,44.840439,-0.5805
binangonan,219203,14.4646,121.1929
chon buri,219190,13.362199,100.983454
pingchen,219163,24.95,121.2
chesapeake,219124,36.8188889,-76.2752778
serekunda,218790,13.4425,-16.6813889
eldoret,218472,0.5166667,35.2833333
haibowan,218427,39.664722,106.812222
bertoua,218217,4.5833333,13.6833333
imperatriz,218110,-5.533333,-47.483333
san pedro de macoris,217901,18.45,-69.3
daloa,217876,6.877355,-6.450221
ambarnath,217778,19.2,73.166667
taiping,217658,4.85,100.733333
alor setar,217378,6.121045,100.360137
purwokerto,217245,-7.421389,109.234444
garland,217219,32.9125,-96.6386111
colombo,217002,-25.283333,-49.233333
rybinsk,216726,58.044598,38.842594
santa rosa,216650,14.305579,121.110739
kisumu,216479,-0.1,34.75
mage,216342,-22.655556,-43.015278
modesto,216008,37.6391667,-120.9958333
purwakarta,215816,-6.556944,107.443333
mirpur khas,215739,25.5251,69.0159
biysk,215433,52.536389,85.207222
concepcion,215414,-36.833333,-73.05
prokopyevsk,215272,53.9059,86.719
paradise,215120,36.0972222,-115.1458333
velikiy novgorod,215065,58.516667,31.283333
owerri,215053,5.483333,7.030407
los mochis,214610,25.766667,-108.966667
shagamu,214574,6.843226,3.647763
taboao da serra,214527,-23.6,-46.766667
bergen,214154,60.391111,5.324722
nazret,214034,8.55,39.266667
freiburg,213920,48,7.85
hsichih,213899,25.0691667,121.6505556
nagercoil,213877,8.193889,77.431389
catamarca,213601,-28.469574,-65.785239
braila,213570,45.266667,27.983333
lipa,213525,13.9411,121.1631
guangyuan,213365,32.442015,105.822996
bukan,213349,36.521,46.2089
rennes,213334,48.111981,-1.674291
lubeck,213171,53.866667,10.7
jacarei,213114,-23.316667,-45.966667
chula vista,213032,32.64,-117.0833333
chofu,212978,35.655556,139.552222
loa janan,212820,-0.583333,117.083333
rancagua,212696,-34.17083,-70.74444
mostoles,212504,40.320923,-3.862849
bukit mertajam,212387,5.363014,100.466701
dezful,212367,32.3825,48.402
marilia,212222,-22.216667,-49.933333
esenyurt,211443,41.033333,28.675278
lubbock,211387,33.5777778,-101.8547222
rochester,211354,43.1547222,-77.6158333
hailar,211066,49.2,119.7
laredo,210769,27.5061111,-99.5072222
tarhunah,210698,32.4333333,13.6333333
matsumoto,210669,36.233333,137.966667
eindhoven,210498,51.45,5.466667
daliang,210411,22.850416,113.247006
qui nhon,210346,13.766667,109.233333
pali,210117,25.766667,73.333333
luque,209836,-25.266667,-57.566667
vung tau,209699,10.35,107.066667
shuangyashan,209521,46.636111,131.153889
presidente prudente,209507,-22.116667,-51.366667
sanming,209444,26.248611,117.618611
sohag,209440,26.55,31.7
sao leopoldo,209233,-29.766667,-51.15
yamunanagar,208945,30.1,77.283333
pingtung,208920,22.6725,120.4883333
nakhon ratchasima,208781,14.971596,102.08255
torun,208717,53.035831,18.604844
oruro,208687,-17.9833333,-67.15
kielce,208598,50.833333,20.666667
rewa,208483,24.533333,81.3
la romana,208439,18.4166667,-68.9666667
akron,208414,41.0813889,-81.5191667
gaborone,208411,-24.6463889,25.9119444
hangu,208369,39.248889,117.789167
orlando,207970,28.5380556,-81.3794444
lobito,207957,-12.319722,13.599722
north shore,207865,-36.8,174.75
yungho,207852,25,121.4961111
ciputat,207848,-6.2375,106.695556
sirjan,207661,29.452,55.6814
san pablo,207572,14.0683,121.3256
haldia,207466,22.025278,88.058333
ciampea,207445,-6.540278,106.695556
sumedang,206919,-6.858611,107.916389
kasukabe,206919,35.976389,139.753611
tilburg,206858,51.576922,5.106331
toamasina,206390,-18.1666667,49.3833333
dinajpur,206251,25.6333333,88.6333333
itabuna,205666,-14.8,-39.266667
kishiwada,205563,34.466667,135.366667
padova,205247,45.416667,11.883333
campeche,205221,19.85,-90.533333
suzhou,205130,33.636111,116.978889
sao carlos,205039,-22.016667,-47.9
hobart,204863,-42.883209,147.331665
debrecen,204825,47.533333,21.633333
durham,204734,35.9938889,-78.8988889
trieste,204379,45.648611,13.78
nanchong,204368,30.775757,106.102938
numazu,204320,35.1,138.866667
bidar,204088,17.9,77.55
oradea,203841,47.066667,21.933333
las tunas,203690,20.9616667,-76.9511111
hortolandia,203537,-22.85,-47.25
agartala,203292,23.836389,91.275
glendale,203201,34.1425,-118.2541667
munger,203185,25.383333,86.466667
edea,203170,3.8,10.1333333
sao jose,203142,-27.633333,-48.65
luchou,203059,25.0830556,121.47
odawara,203038,35.255556,139.159722
osmaniye,202944,37.074167,36.247778
djougou,202834,9.705,1.6669444
babol,202812,36.551321,52.678951
burhanpur,202717,21.3,76.233333
tampere,202688,61.5,23.75
ashdod,202681,31.736056,34.655944
ashdod,202681,31.792133,34.649656
corlu,202659,41.159167,27.8
fremont,202615,37.5483333,-121.9875
yiyang,202608,28.589167,112.328333
alberton,202503,-26.265207,28.140595
linxia,202402,35.600278,103.206389
san bernardino,202381,34.1083333,-117.2888889
cileungsi,202360,-6.394722,106.959167
reno,202142,39.5297222,-119.8127778
fuenlabrada,202088,40.284189,-3.794147
nadiad,202080,22.7,72.866667
mossoro,202010,-5.191389,-37.344722
pskov,201992,57.8136,28.3496
cartagena,201977,37.605121,-0.986232
yuncheng,201950,35.023056,110.992778
balakovo,201923,51.9284,47.9172
gweru,201879,-19.45,29.8166667
chiniot,201840,31.72,72.978889
itapevi,201752,-23.55,-46.933333
rengasdengklok,201687,-6.159167,107.298056
sete lagoas,201337,-19.45,-44.233333
chiang mai,200952,18.790376,98.984683
petropavl,200891,54.875278,69.162778
cabimas,200859,10.4019444,-71.4461111
dindigul,200814,10.35,77.95
yamoussoukro,200659,6.820548,-5.276741
santo domingo,200421,-0.25,-79.15
jalalabad,200389,34.426468,70.45153
ugep,200293,5.8086,8.0812
charleroi,200132,50.416667,4.433333
sikar,199946,27.616667,75.15
kamoke,199589,31.974444,74.224444
armavir,199551,44.9892,41.1234
dasoguz,199514,41.8333333,59.9666667
hagen,199497,51.35,7.466667
amol,199398,36.469612,52.350724
bila tserkva,199161,49.809386,30.112086
dudley,199060,52.5,-2.083333
saskatoon,198957,52.133333,-106.666667
karawang,198894,-6.303333,107.305556
gliwice,198835,50.297612,18.676583
capiata,198801,-25.35,-57.416667
changji,198776,44.016667,87.316667
malolos,198763,14.841944,120.811667
bulandshahr,198631,28.4,77.85
sabadell,198589,41.54329,2.109423
purnia,198474,25.783333,87.466667
kaiyuan,198423,23.697668,103.303723
kapra,198349,17.486667,78.566111
montgomery,198325,32.3666667,-86.3
sibu,198252,2.3,111.816667
oviedo,198250,43.363223,-5.853128
machala,198123,-3.2666667,-79.9666667
cibitung,198119,-6.272222,107.103611
tapachula,197968,14.9,-92.283333
hospet,197862,15.266667,76.4
yonkers,197818,40.9311111,-73.8991667
mentougou,197772,39.939167,116.091667
talca,197480,-35.433333,-71.666667
gurgaon,197353,28.466667,77.033333
chhapra,197350,25.766667,84.75
northampton,197323,52.25,-0.883333
spokane,197262,47.6588889,-117.425
birjand,197004,32.866277,59.221139
shreveport,196980,32.525,-93.75
tacoma,196957,47.2530556,-122.4430556
rostock,196833,54.083333,12.133333
erfurt,196719,50.983333,11.033333
izmit,196672,40.766944,29.916944
vientiane,196644,17.966667,102.6
kure,196626,34.233333,132.566667
palmas,196332,-10.222778,-48.277778
sambhal,196129,28.583333,78.55
americana,196026,-22.740278,-47.334444
engels,196013,51.483889,46.105278
huntington beach,195968,33.6602778,-117.9983333
murwara,195877,23.85,80.4
san-pedro,195873,4.748508,-6.636301
monclova,195772,26.9,-101.416667
gboko,195710,7.3179,8.9951
nagaoka,195320,37.45,138.85
coro,195246,11.4091667,-69.6672222
alcala de henares,195152,40.482048,-3.359957
mbour,194682,14.4,-16.9666667
petrolina,194653,-9.4,-40.5
novi sad,194405,45.251667,19.836944
maseru,194387,-29.3166667,27.4833333
nangloi jat,194381,28.683333,77.066667
severodvinsk,194295,64.5635,39.8302
portsmouth,194151,50.7967,-1.083333
nnewi,194002,6.019864,6.914775
parung,193991,-6.3276,106.9715
santa cruz de tenerife,193852,28.460238,-16.280616
grand rapids,193852,42.9633333,-85.6680556
divinopolis,193835,-20.15,-44.9
irving,193825,32.8138889,-96.9486111
brescia,193713,45.55,10.25
luton,193670,51.883333,-0.416667
ezhou,193652,30.396072,114.886546
maracanau,193532,-3.866667,-38.633333
itami,193526,34.766667,135.416667
nam dinh,193507,20.416667,106.166667
winston-salem,193300,36.0997222,-80.2444444
des moines,193180,41.6005556,-93.6088889
kassel,193117,51.316667,9.5
uji,192926,34.883333,135.8
machilipatnam,192848,16.166667,81.133333
reims,192688,49.25,4.033333
bayamo,192641,20.3791667,-76.6433333
katihar,192575,25.533333,87.583333
newcastle upon tyne,192382,54.988056,-1.619444
klaipeda,192314,55.7172222,21.1175
guatire,192291,10.4666667,-66.5333333
zabrze,192177,50.306355,18.783333
bojnurd,192062,37.47473,57.329031
leganes,192000,40.326946,-3.760422
leuwiliang,191992,-6.575833,106.636944
humen,191891,22.818985,113.673064
hat yai,191696,7.008359,100.476682
haicheng,191651,40.851582,122.747537
curug,191617,-6.253333,106.617222
curug,191617,-6.3367,106.2256
pamplona,191549,42.814075,-1.641153
suzuka,191479,34.883333,136.583333
zinder,191440,13.8,8.9833333
barrancabermeja,191406,7.065278,-73.854722
zlatoust,191369,55.171111,59.650833
taranto,191364,40.476111,17.229722
richmond,190886,37.5536111,-77.4605556
bhiwani,190868,28.783333,76.133333
preston,190688,53.766667,-2.716667
tali,190564,24.1,120.6666667
zouxian,190537,35.400556,116.965556
mobile,190274,30.6941667,-88.0430556
ise,190077,7.4632,5.4281
sadiqabad,189931,28.30623,70.130646
jaramana,189888,33.4833333,36.35
lille,189746,50.632971,3.058585
beni suef,189637,29.0638889,31.0888889
syzran,189341,53.1585,48.4681
irvine,189297,33.6694444,-117.8222222
jerez,189230,36.686454,-6.136063
mwene-ditu,189215,-7,23.45
bytom,189186,50.348017,18.932822
izumi,189087,34.483333,135.433333
tacloban,189087,11.243333,125.004722
santarem,189053,-2.433333,-54.7
kabwe,189006,-14.4333333,28.45
wanxian,188980,30.803889,108.389722
quelimane,188964,-17.8786111,36.8883333
cork,188908,51.8986111,-8.4958333
camacari,188763,-12.483333,-38.216667
cibinong,188674,-6.398611,106.688611
sunrise manor,188608,36.2111111,-115.0722222
le havre,188605,49.5,0.133333
donghai,188602,22.945935,115.642043
burgas,188554,42.5,27.4666667
baiyin,188533,36.558333,104.208056
mabalacat,188057,15.2216,120.5736
mainz,187940,50,8.271111
paarl,187875,-33.733781,18.975228
xiaolan,187865,22.673811,113.231874
rio grande,187842,-32.033333,-52.083333
terrassa,187770,41.561111,2.008056
aktau,187700,43.65,51.2
kodaira,187369,35.726389,139.483889
petropavlovsk-kamchatskiy,187283,53.0452,158.6483
kuytun,187242,44.416667,85
oxnard,187235,34.1975,-119.1761111
puerto vallarta,187143,20.616667,-105.25
cachoeiro de itapemirim,187023,-20.85,-41.1
pinar del rio,186997,22.4175,-83.6980556
kikwit,186995,-5.038611,18.818056
brebes,186936,-6.8691,109.0378
cienfuegos,186648,22.1461111,-80.4355556
almere,186457,52.388101,5.235395
rae bareli,186451,26.216667,81.233333
pokhara,186410,28.2333333,83.9833333
springs,186400,-26.25,28.4
hitachi,186311,36.6,140.65
hamm,186289,51.683333,7.8
madiun,186116,-7.6298,111.5239
haridwar,186099,29.966667,78.166667
arica,186000,-18.475,-70.30417
nogales,185890,31.333333,-110.933333
arlington,185360,38.8902778,-77.0844444
jamame,185270,0.0722222,42.7505556
santander,185209,43.464722,-3.804444
columbus,185208,32.4608333,-84.9877778
araraquara,185191,-21.783333,-48.166667
kutahya,185104,39.424167,29.983333
moratuwa,185062,6.7733333,79.8825
san luis,184869,-33.295012,-66.335627
meycauayan,184838,14.7328,120.96
zaoyang,184509,32.127222,112.754167
divo,184481,5.83739,-5.357229
junagadh,184459,21.516667,70.466667
little rock,184217,34.7463889,-92.2894444
mbandaka,184189,0.066667,18.266667
pemalang,184169,-6.9,109.366667
quanzhou,184143,24.913889,118.585833
burewala,183969,30.161423,72.681512
badaojiang,183880,41.943056,126.428611
aberdeen,183791,57.133333,-2.1
zaozhuang,183665,34.864722,117.554167
corum,183513,40.548889,34.953333
somerset west,183503,-34.079375,18.85699
newport news,183444,36.9786111,-76.4283333
eluru,183401,16.7,81.1
lalitpur,183316,27.6666667,85.3333333
lembang,183283,-6.786389,107.7025
manta,183166,-0.95,-80.7333333
bhusawal,183016,21.05,75.766667
pak kret,182926,13.913014,100.498828
cua,182925,10.1622222,-66.8852778
ilawe,182896,7.5986,5.1086
yachiyo,182894,35.735306,140.124453
khandwa,182860,21.833333,76.333333
antsirabe,182804,-19.85,47.0333333
ikare,182779,7.516667,5.75
liege,182597,50.633333,5.566667
sakura,182553,35.716667,140.233333
itaborai,182500,-22.75,-42.866667
tarlac,182413,15.489449,120.591932
biratnagar,182331,26.4833333,87.2833333
bahraich,182236,27.583333,81.6
barrie,182070,44.383333,-79.7
monywa,182034,22.1166667,95.1333333
reggio di calabria,181990,38.1,15.65
kamensk-uralskiy,181884,56.4185,61.9329
saarbrucken,181779,49.233333,7
amarillo,181766,35.2219444,-101.8308333
probolinggo,181678,-7.7543,113.2159
guarenas,181657,10.4666667,-66.6166667
sirsa,181652,29.533333,75.016667
taman,181626,-6.9,109.383333
almeria,181497,36.833333,-2.45
geneva,181492,46.195602,6.148113
anda,181271,46.4,125.316667
shangqiu,181218,34.383333,115.616667
linz,181163,48.3,14.3
melaka,180675,2.196,102.2405
modena,180641,44.666667,10.916667
chandannagar,180640,22.869167,88.377222
baharampur,180564,24.1,88.25
dodoma,180551,-6.1833333,35.75
zuwarah,180310,32.9344444,12.0791667
rio claro,180151,-22.4,-47.55
matadi,180115,-5.816667,13.45
groningen,179995,53.216667,6.55
indaiatuba,179914,-23.083333,-47.233333
luan,179665,31.756944,116.491389
surendranagar,179640,22.7,71.683333
varamin,179620,35.3242,51.6457
dos quebradas,179586,4.839164,-75.667265
passo fundo,179532,-28.266667,-52.4
korla,179465,41.759722,86.146944
cotabato,179445,7.223611,124.246389
miskolc,179430,48.1,20.783333
vizianagaram,179379,18.116667,83.416667
wellington,179240,-41.3,174.783333
ila,179204,8.016667,4.9
shulin,179136,25,121.4166667
qianjiang,179079,30.415128,112.88595
chenzhou,179038,25.8,113.033333
klerksdorp,178928,-26.852128,26.666719
si racha,178916,13.173722,100.931111
prato,178915,43.883333,11.1
amadora,178856,38.759711,-9.239708
mitaka,178739,35.683333,139.55
shaki,178688,8.666667,3.383333
la rioja,178497,-29.411048,-66.850668
salalah,178469,17.0175,54.0827778
salt lake city,178026,40.7608333,-111.8902778
sunderland,177965,54.911944,-1.383333
proddatur,177816,14.733333,78.55
akyab,177765,20.15,92.9
norwich,177636,52.633333,1.3
providence,177595,41.8238889,-71.4133333
meiktila,177464,20.8666667,95.8666667
loum,177448,4.7161111,9.7463889
worcester,177216,42.2625,-71.8027778
velluru,177096,12.933333,79.133333
pate,176909,24.9333333,121.2833333
alappuzha,176799,9.494167,76.3275
jackson,176696,32.2986111,-90.1847222
santa ana,176671,13.9941667,-89.5597222
bielsko-biala,176515,49.822449,19.046863
split,176315,43.5138889,16.4558333
amroha,176271,28.916667,78.466667
regina,176182,50.45,-104.616667
saint-louis,176048,16.0188889,-16.4952778
yizheng,176006,32.269167,119.178889
turku,175944,60.45,22.283333
honghu,175761,29.816667,113.466667
tsukuba,175593,36.083333,140.116667
saveh,175545,35.0213,50.3566
siverek,175432,37.755025,39.316667
khoy,175386,38.5503,44.9521
podolsk,175326,55.424185,37.554717
jiutai,175115,44.1525,125.832778
bournemouth,175017,50.716667,-1.883333
hirosaki,174973,40.593056,140.4725
cotia,174832,-23.616667,-46.933333
karamay,174828,45.600376,84.860142
tomakomai,174808,42.636944,141.603333
george,174591,-33.963,22.461727
pamulang,174549,-6.342778,106.738333
pathankot,174319,32.283333,75.65
hadano,174284,35.371111,139.223611
aurora,174276,41.7605556,-88.32
cikupa,174184,-6.228889,106.519444
cikupa,174184,-6.3724,106.1945
abuja,174152,9.180515,7.179327
bozhou,174140,33.877222,115.770278
rio cuarto,174058,-33.130671,-64.349918
bhind,174053,26.564167,78.788333
obihiro,173892,42.917222,143.204444
nis,173775,43.324722,21.903333
los teques,173749,10.35,-67.0333333
ube,173735,33.943056,131.251111
tachikawa,173696,35.692778,139.418056
san pablo de las salinas,173565,19.665833,-99.096389
stavanger,173535,58.966667,5.75
shimla,173517,31.103333,77.172222
mergui,173317,12.4333333,98.6
herne,173121,51.55,7.216667
bata,173036,1.85,9.75
midrand,173009,-25.963611,28.137778
metepec,172990,19.253611,-99.607778
ongole,172891,15.5,80.05
temirtau,172809,50.054444,72.948333
ontario,172808,34.0633333,-117.65
mulheim,172779,51.433333,6.883333
licheng,172775,23.295537,113.828357
salatiga,172664,-7.321389,110.507778
knoxville,172474,35.9605556,-83.9208333
isparta,172424,37.764444,30.552222
netanya,172405,32.332915,34.859918
weinan,172321,34.503546,109.508908
walsall,172142,52.6,-2
korhogo,172114,9.458031,-5.629608
olsztyn,171803,53.779949,20.494162
francisco morato,171793,-23.279503,-46.746403
hino,171778,35.673056,139.400278
jian,171718,27.05,114.9
bida,171672,9.083333,6.016667
tagum,171656,7.4475,125.8046
la paz,171490,24.166667,-110.3
dongling,171454,41.814444,123.575833
bacau,171397,46.566667,26.9
phra pradaeng,171333,13.658545,100.533618
kulim,170931,5.364991,100.561773
swansea,170885,51.633333,-3.966667
puri,170856,19.8,85.85
gilbert,170829,33.3527778,-111.7883333
jacobabad,170653,28.281004,68.438759
khammam,170522,17.25,80.15
fort lauderdale,170510,26.1219444,-80.1436111
uvira,170422,-3.406667,29.145833
saint-etienne,170416,45.435382,4.391051
carolina,170408,18.3827778,-65.9577778
oceanside,170340,33.1958333,-117.3786111
portoviejo,170326,-1.05,-80.45
raiganj,170268,25.616667,88.116667
takaoka,170079,36.75,137.016667
ingraj bazar,170056,25,88.15
aracatuba,170028,-21.2,-50.416667
fuyang,170023,32.9,115.816667
kluang,169838,2.0251,103.3328
laiyang,169594,36.975833,120.713611
jaunpur,169589,25.733333,82.683333
alcorcon,169343,40.346467,-3.812453
fontana,169160,34.0922222,-117.4341667
jaffna,169126,9.6666667,80
arad,169067,46.183333,21.316667
breda,168934,51.566667,4.8
bahir dar,168929,11.6,37.383333
santa clarita,168927,34.3916667,-118.5416667
anjo,168664,34.95,137.083333
moreno valley,168629,33.9375,-117.2297222
rancho cucamonga,168557,34.1063889,-117.5922222
burgos,168319,42.350221,-3.675273
maragheh,168290,37.3893,46.2376
brownsville,168015,25.9013889,-97.4972222
jamalpur,167914,24.9166667,89.9333333
ferraz de vasconcelos,167904,-23.533333,-46.366667
awka,167751,6.210095,7.074115
berezniki,167750,59.415189,56.812371
volgodonsk,167734,47.5026,42.235
pitesti,167671,44.85,24.866667
ijero,167644,7.8139,5.0742
getafe,167550,40.308423,-3.70596
huntsville,167528,34.7302778,-86.5861111
sirajganj,167501,24.45,89.7166667
abakan,167291,53.715556,91.429167
fianarantsoa,167240,-21.4333333,47.0833333
garden grove,167232,33.7738889,-117.9405556
plumbon,167187,-6.576944,108.317778
benha,167070,30.4608333,31.1875
novocherkassk,166976,47.420175,40.091325
arapiraca,166566,-9.75,-36.65
fuling,166507,29.702222,107.391944
fatehpur,166496,25.933333,80.8
jiutepec,166340,18.866667,-99.183333
waitakere,166237,-36.85,174.55
ocumare del tuy,166112,10.1216667,-66.7716667
gaozhou,166069,21.939243,110.846074
kamakura,166019,35.308889,139.550278
overland park,166010,38.9822222,-94.6705556
wulanhaote,165846,46.083333,122.083333
plzen,165531,49.75,13.366667
tulua,165504,4.084656,-76.19536
north las vegas,165416,36.1988889,-115.1166667
osnabruck,165372,52.266667,8.05
nandyal,165355,15.483333,78.483333
chilpancingo,165257,17.55,-99.5
muzaffargarh,165240,30.07537,71.192129
saga,165237,33.249322,130.298799
solingen,165192,51.183333,7.083333
banjaran,165136,-6.871667,107.77
jiaozhou,165026,36.283889,120.003333
spring valley,165015,36.1080556,-115.2441667
loni,164927,28.75,77.283333
hengshan,164844,45.2,130.916667
serang,164777,-6.1149,106.1502
lages,164679,-27.8,-50.316667
basel,164474,47.558395,7.573271
sitapur,164451,27.566667,80.683333
zenica,164422,44.2013889,17.9063889
muridke,164292,31.760027,73.835687
kigoma,164261,-4.8769444,29.6266667
inisa,164172,7.8,4.283333
nazran,164142,43.225967,44.773231
jhelum,164128,32.933132,73.726367
barra mansa,164054,-22.533333,-44.183333
chalco,164003,19.266667,-98.9
nossa senhora do socorro,163996,-10.866667,-37.116667
bhadravati,163917,13.866667,75.716667
puerto cabello,163886,10.4730556,-68.0125
parakou,163759,9.35,2.6166667
susah,163704,35.825388,10.636991
adoni,163649,15.633333,77.283333
maradi,163501,13.4916667,7.0963889
juba,163455,4.85,31.6166667
southend-on-sea,163378,51.533333,0.7
patrai,163361,38.2444444,21.7344444
veraval,163336,20.9,70.366667
tongzhou,163326,39.905278,116.599444
envigado,163010,6.170643,-75.585307
anbu,162964,23.448953,116.680916
sambalpur,162901,21.45,83.966667
gadag,162583,15.416667,75.616667
ludwigshafen,162514,49.481111,8.435278
sullana,162493,-4.9038889,-80.6852778
mahabad,162448,36.7499,45.7229
swindon,162439,51.516667,-1.783333
dourados,162206,-22.216667,-54.8
suleja,162150,9.180515,7.179327
criciuma,161957,-28.666667,-49.383333
qunduz,161943,36.728955,68.857001
sapele,161692,5.894053,5.67666
unnao,161687,26.533333,80.5
budaun,161571,28.05,79.116667
coquimbo,161319,-29.953333,-71.343611
jind,161271,29.316667,76.316667
madhyamgram,161142,22.7,88.45
rubtsovsk,161067,51.5,81.25
gudalur,160993,11.75,79.75
malakal,160893,9.5369444,31.6561111
sayama,160846,35.824167,139.376389
otukpo,160830,6.815,8.6531
phan thiet,160665,10.933333,108.1
szeged,160609,46.25,20.166667
mytishchi,160545,55.91163,37.730757
kawanishi,160522,34.816667,135.416667
oldenburg,160347,53.166667,8.2
mejicanos,160319,13.7402778,-89.2130556
jamuria,160257,23.7,87.083333
chapeco,160160,-27.083333,-52.983333
taunggyi,160136,20.7833333,97.0333333
puerto montt,160055,-41.469848,-72.944745
iskenderun,160046,36.587185,36.173468
oyama,159938,36.3,139.8
salavat,159896,53.38365,55.907729
sekudai,159864,1.533333,103.666667
ashikaga,159673,36.333333,139.45
lawang,159517,-7.8353,112.6947
zhicheng,159383,30.295556,111.504722
tarija,159275,-21.5166667,-64.75
prizren,159145,42.213889,20.739722
dayton,159134,39.7588889,-84.1916667
leverkusen,159088,51.016667,6.983333
nijmegen,158707,51.833333,5.866667
pasuruan,158618,-7.6453,112.9075
angers,158585,47.473806,-0.54774
maykop,158453,44.607778,40.105833
rzeszow,158382,50.037246,22.004949
tempe,158368,33.4147222,-111.9086111
sabara,158359,-19.9,-43.8
huzhou,158320,30.870301,120.093297
barreiras,158296,-12.133333,-45
orai,158280,25.983333,79.466667
anyama,158250,5.494622,-4.051831
cicalengka,158211,-6.932222,107.470278
long xuyen,158159,10.383333,105.416667
hoshiarpur,158154,31.532222,75.917222
sobral,157998,-3.7,-40.35
sunggal,157936,3.5765,98.6151
tanjung morawa,157908,3.5193,98.7914
bushehr,157778,28.9684,50.8385
apeldoorn,157763,52.216667,5.966667
talkha,157756,31.0530556,31.3738889
nador,157665,35.174041,-2.92866
ruse,157519,43.8563889,25.9708333
vancouver,157517,45.6388889,-122.6602778
perbaungan,157378,3.5679,98.956
cagliari,157343,39.216667,9.116667
sukaraja,157205,-6.587778,106.8375
pallavaram,157158,12.976111,80.183611
perugia,157077,43.133333,12.366667
ussuriysk,157071,43.8025,132.009444
nanpiao,157044,41.098218,120.747923
podgorica,156988,42.441111,19.263611
moshi,156970,-3.35,37.3333333
shikarpur,156961,27.957057,68.637886
toledo,156915,10.3773,123.6386
westonaria,156831,-26.319055,27.648605
pecs,156661,46.075363,18.232845
miass,156563,55.045,60.108333
bandar penggaram,156245,1.8548,102.9325
pomona,156183,34.0552778,-117.7513889
lampang,156139,18.292318,99.49277
narashino,156085,35.683333,140.033333
malabo,156039,3.75,8.7833333
nagareyama,156003,35.883333,139.933333
nagareyama,156003,35.850556,139.891389
pembroke pines,155862,26.0027778,-80.2241667
kumagaya,155816,36.133333,139.383333
yichun,155762,47.7,128.9
itajai,155719,-26.883333,-48.65
hanumangarh,155698,29.583333,74.316667
parma,155693,44.8,10.333333
concordia,155686,-31.392959,-58.02089
kishi,155520,9.083333,3.85
ilheus,155503,-14.816667,-39.033333
port louis,155226,-20.1619444,57.4988889
salamanca,155175,40.9681,-5.66202
santa rosa,155118,38.4405556,-122.7133333
albacete,155083,38.995845,-1.857773
kanchipuram,155043,12.833333,79.716667
beipiao,154999,41.791944,120.779167
antakya,154881,36.206551,36.157225
grenoble,154853,45.171546,5.722387
puerto princesa,154816,9.739167,118.735278
guangshui,154771,31.616111,113.815556
middelburg,154720,-25.775071,29.464821
mahajanga,154670,-15.7166667,46.3166667
lyubertsy,154653,55.677193,37.893217
butembo,154649,0.15,29.283333
oxford,154567,51.75,-1.25
chincha alta,154561,-13.45,-76.1333333
la serena,154523,-29.907778,-71.254167
leshan,154477,29.562275,103.76386
toulon,154465,43.117705,5.941712
gandajika,154414,-6.75,23.95
khanewal,154407,30.3,71.933333
zhaodong,154406,46.083333,125.983333
ambato,154369,-1.25,-78.6166667
cairns,154318,-16.92304,145.766251
viransehir,154244,37.235278,39.763056
pasarkemis,154227,-6.170278,106.530278
kovrov,154226,56.357222,41.319167
enschede,154183,52.219515,6.891235
tottori,154099,35.5,134.233333
san cristobal,154045,18.4166667,-70.1
chattanooga,154024,35.0455556,-85.3097222
lemesos,154018,34.675,33.0333333
xinzhou,154003,38.409167,112.733333
gondar,153942,12.6,37.466667
alandur,153789,13.0025,80.206111
guna,153705,24.65,77.316667
hafizabad,153701,32.067857,73.685449
dijon,153692,47.316667,5.016667
bahadurgarh,153666,28.683333,76.916667
angra dos reis,153637,-23,-44.3
boshan,153596,36.483333,117.833333
niiza,153591,35.797915,139.525391
tallahassee,153583,30.4380556,-84.2808333
chuncheng,153547,22.166667,111.783333
bharuch,153538,21.7,72.966667
nova friburgo,153363,-22.266667,-42.533333
faizabad,153062,26.783333,82.133333
neuss,152975,51.2,6.683333
corona,152954,33.8752778,-117.5655556
usak,152943,38.673511,29.405799
linhai,152937,28.85,121.116667
dingzhou,152934,38.513056,114.995556
rondonopolis,152921,-16.466667,-54.633333
rockford,152765,42.2711111,-89.0938889
hamilton,152642,-37.783333,175.283333
ponce,152639,18.0130556,-66.6144444
weihai,152595,37.501667,122.113611
chenghai,152453,23.461319,116.770071
silchar,152399,24.816667,92.8
ciomas,152335,-6.601389,106.771389
aksaray,152281,38.37255,34.02537
banda,152233,25.483333,80.333333
springfield,152227,42.1013889,-72.5902778
deyang,152194,31.130192,104.381981
kerch,152194,45.360696,36.470597
yichun,152169,27.833333,114.4
rancaekek,152108,-6.960278,107.7575
ota,152106,36.3,139.366667
longfeng,152074,46.55,125.116667
morena,152020,26.496944,78
kaili,151956,26.5,107.583333
sibiu,151895,45.8,24.15
tenali,151793,16.25,80.583333
guacara,151788,10.2297222,-67.8738889
bintulu,151718,3.166667,113.033333
abbotsford,151685,49.05,-122.3
itapecerica da serra,151608,-23.716667,-46.833333
dundee,151593,56.5,-2.966667
iruma,151548,35.845516,139.412003
kohat,151488,33.581958,71.449291
tonk,151341,26.166667,75.783333
qingyuan,151287,23.7,113.033333
saqqez,151249,36.2463,46.2665
benguela,151235,-12.578333,13.407222
paterson,151205,40.9166667,-74.1722222
soreang,151135,-7.033056,107.518333
komaki,151026,35.283333,136.916667
el tigre,151011,8.8925,-64.2527778
minatitlan,150902,17.983333,-94.516667
guarapuava,150851,-25.383333,-51.45
gaomi,150793,36.383333,119.752778
loudi,150684,27.734444,111.994444
warqla,150611,31.9575,5.3277778
ogaki,150572,35.35,136.616667
brest,150554,48.390756,-4.486165
balti,150472,47.761667,27.928889
huangyan,150448,28.647778,121.259444
springfield,150443,37.2152778,-93.2980556
geelong,150438,-38.153461,144.358093
virar,150419,19.466667,72.8
chillan,150396,-36.6,-72.116667
parnamirim,150347,-5.916667,-35.25
leon,150327,12.4355556,-86.8794444
purwodadi,150278,-7.0868,110.9158
balashikha,150105,55.809452,37.958055
poole,150092,50.716667,-2
vryheid,150079,-27.76952,30.791653
tambaram,150056,12.927222,80.110556
shantipur,149998,23.25,88.466667
yangmei,149768,24.9166667,121.1333333
metro,149552,-5.113056,105.306667
ome,149324,35.783889,139.243056
kragujevac,149275,44.016667,20.916667
huddersfield,149018,53.65,-1.783333
camaragibe,148966,-8.016667,-34.966667
dunhua,148844,43.3725,128.2425
salinas,148691,36.6777778,-121.6544444
chingola,148583,-12.5333333,27.85
yulin,148485,22.633333,110.15
bid,148477,18.983333,75.766667
huanuco,148466,-9.9166667,-76.2333333
gyumri,148383,40.7894444,43.8475
chizhou,148375,30.657778,117.483056
moriguchi,148352,34.733333,135.566667
el limon,148270,10.3091667,-67.6325
barakpur,148188,22.761389,88.371944
sujiatun,148113,41.659167,123.339167
hong gai,148072,20.951111,107.08
astanajapura,148055,-6.8017,108.6311
hampton,147993,37.0297222,-76.3455556
honggang,147977,46.466667,124.866667
haarlem,147736,52.366667,4.65
medea,147710,36.2675,2.75
kolomna,147692,55.079444,38.778333
rafsanjan,147691,30.4067,55.9939
khon kaen,147579,16.446711,102.832999
waru,147506,-7.36,112.724722
tama,147477,35.643599,139.468436
le mans,147413,48.000386,0.204709
nilopolis,147283,-22.808487,-43.419792
erode,147283,11.35,77.733333
naga,147115,13.6232,123.1841
manama,147097,26.2361111,50.5830556
kalemie,147065,-5.933333,29.2
buon me thuot,146986,12.666667,108.05
trondheim,146930,63.416667,10.416667
nakhodka,146922,42.833333,132.894722
salem,146922,44.9430556,-123.0338889
cianjur,146883,-6.822222,107.139444
targu-mures,146864,46.55,24.566667
gulu,146832,2.7666667,32.3055556
ambala,146797,30.378333,76.780833
cam ranh,146771,11.9,109.15
leghorn,146762,43.55,10.316667
matanzas,146738,23.0411111,-81.5775
pocos de caldas,146590,-21.8,-46.566667
atyrau,146440,47.116667,51.883333
afyonkarahisar,146211,38.756667,30.543333
ruda slaska,146189,50.307941,18.855156
cuautla,146186,18.8,-98.95
qujing,146015,25.483333,103.783333
hanzhong,145986,33.072778,107.030278
krishnanagar,145941,23.4,88.5
odense,145931,55.393475,10.394935
huelva,145901,37.271447,-6.949464
maraba,145865,-5.35,-49.116667
orkney,145843,-26.980232,26.672717
sasaram,145798,24.95,84.033333
saharsa,145779,25.883333,86.6
pasir gudang,145739,1.462,103.9053
beian,145670,48.266667,126.6
cikampek,145613,-6.419722,107.455833
batala,145479,31.818611,75.202778
taicheng,145440,22.251347,112.779904
salzburg,145310,47.8,13.033333
potsdam,145291,52.4,13.066667
tabora,145291,-5.0166667,32.8
eugene,145208,44.0522222,-123.0855556
spanish town,145024,17.9833333,-76.95
torrance,144963,33.8358333,-118.3397222
arnhem,144959,51.979818,5.925636
khujand,144874,40.28,69.6316667
hollywood,144821,26.0108333,-80.1497222
sikasso,144801,11.3166667,-5.6666667
heidelberg,144703,49.416667,8.7
acuna,144703,29.3,-100.916667
pasadena,144696,29.6908333,-95.2088889
acheng,144665,45.545452,126.977031
pasadena,144618,34.1477778,-118.1436111
kebumen,144457,-7.323333,109.600833
kumba,144428,4.6438889,9.4386111
elektrostal,144389,55.789593,38.446711
jinchang,144363,38.495278,102.173889
york,144202,53.954115,-1.064262
gorontalo,144202,0.5412,123.0595
goma,144151,-1.679167,29.222778
salerno,144147,40.683333,14.783333
ekibastuz,144133,51.666667,75.366667
abengourou,144074,6.729722,-3.496389
teshie,144012,5.5833333,-0.1
naperville,143850,41.7858333,-88.1472222
foggia,143826,41.45,15.566667
otaru,143794,43.189444,141.002222
dumai,143775,1.683333,101.45
ipswich,143768,52.083333,1.166667
urayasu,143761,35.663338,139.908548
urayasu,143761,35.670556,139.888611
acarigua,143739,9.5597222,-69.2019444
luziania,143601,-16.25,-47.933333
marawi,143546,7.998611,124.292778
ravenna,143396,44.4175,12.201111
blackpool,143101,53.816667,-3.05
paderborn,143096,51.716667,8.766667
calama,143085,-22.466667,-68.933333
gazni,143049,33.550833,68.4225
cape coast,143044,5.1,-1.25
macae,143031,-22.383333,-41.783333
bhimavaram,142979,16.533333,81.533333
legaspi,142871,13.1387,123.7353
pyatigorsk,142868,44.048611,43.059444
almetyevsk,142727,54.904424,52.315397
middlesbrough,142708,54.572778,-1.162778
khimki,142620,55.897037,37.429687
comodoro rivadavia,142597,-45.864135,-67.496558
rybnik,142510,50.092076,18.547479
metairie,142489,29.9838889,-90.1527778
tuzla,142484,44.5427778,18.6694444
khanpur,142468,28.645338,70.656702
nawabganj,142373,24.6,88.2833333
abha,142255,18.216389,42.505278
jinhua,142206,29.107778,119.654722
aix-en-provence,142133,43.528695,5.448791
kimberley,142105,-28.732262,24.762315
logrono,142103,42.466667,-2.45
ciego de avila,142032,21.84,-78.7619444
jieshou,141993,33.25,115.35
syracuse,141830,43.0480556,-76.1477778
zaanstad,141800,52.45,4.833333
myingyan,141731,21.4666667,95.3833333
balurghat,141418,25.216667,88.766667
ibirite,141376,-20.033333,-44.066667
yonago,141369,35.433333,133.333333
bolton,141331,53.583333,-2.433333
carmen,141315,18.633333,-91.833333
khuzdar,141286,27.738385,66.643365
potosi,141254,-19.5836111,-65.7530556
rijeka,141173,45.3430556,14.4091667
grand prairie,141122,32.7458333,-96.9975
paranagua,141014,-25.516667,-48.5
cisaat,141005,-6.775278,106.771389
ilam,140951,33.6374,46.4227
gongzhuling,140909,43.507222,124.812222
bene beraq,140849,32.090278,34.839722
lakewood,140772,39.7047222,-105.0808333
nigel,140649,-26.431376,28.477132
kaithal,140614,29.8,76.383333
ayacucho,140510,-13.1583333,-74.2238889
hayward,140494,37.6688889,-122.0797222
sanbu,140454,22.36078,112.688088
termiz,140404,37.2241667,67.2783333
sioux falls,140336,43.55,-96.7
lakhimpur,140237,27.95,80.766667
man,140217,7.412513,-7.55383
peterborough,140142,52.583333,-0.25
hazaribag,140079,23.983333,85.35
vidisha,140059,23.533333,77.816667
yushan,140039,31.377623,120.954305
dadu,139836,26.732865,67.776306
gojra,139767,31.148744,72.686556
darmstadt,139757,49.870556,8.649444
piedras negras,139624,28.7,-100.516667
haldwani,139512,29.216667,79.516667
gbongan,139494,7.466667,4.35
peoria,139368,33.5805556,-112.2366667
altay,139341,47.866667,88.116667
habra,139310,22.834444,88.6275
kumbakonam,139276,10.966667,79.383333
san luis rio colorado,139261,32.463056,-114.776667
amersfoort,139208,52.156022,5.389526
sidoarjo,139205,-7.4478,112.7183
kariya,139160,34.983333,136.983333
choloma,139117,15.6166667,-87.95
bridgeport,139090,41.1669444,-73.2052778
stockport,139053,53.4,-2.15
huadian,139047,42.963333,126.747778
weru,139013,-6.711,108.5037
brighton,139001,50.833333,-0.15
townsville,138959,-19.26639,146.805695
porbandar,138881,21.633333,69.6
amiens,138816,49.9,2.3
fuyu,138704,45.183333,124.816667
salamanca,138620,20.566667,-101.2
chitradurga,138599,14.233333,76.4
karang tengah,138471,-6.908611,106.910556
chaohu,138463,31.6,117.866667
ejigbo,138367,7.9,4.316667
kabankalan,138314,9.9902,122.8142
thanesar,138288,29.983333,76.816667
tiruvannamalai,138255,12.216667,79.066667
anand,138018,22.566667,72.933333
parnaiba,138011,-2.909167,-41.774722
pabna,137904,24,89.25
petapa,137839,14.502778,-90.551667
juazeiro,137807,-9.5,-40.5
stara zagora,137760,42.4327778,25.6419444
cadiz,137698,36.515789,-6.279692
peristerion,137660,38.0166667,23.7
itu,137589,-23.266667,-47.316667
dekernes,137559,31.0883333,31.5969444
nimes,137532,43.833778,4.359623
musashino,137480,35.706111,139.559444
jieshi,137444,22.813377,115.825742
castanhal,137410,-1.3,-47.916667
clermont-ferrand,137364,45.779657,3.086281
bitung,137361,1.4451,125.1824
bisho,137288,-32.847212,27.442179
negombo,137246,7.2086111,79.8358333
saint-denis,137198,-20.8666667,55.4666667
iraklion,137155,35.325,25.1305556
escondido,137119,33.1191667,-117.0855556
hami,137072,42.8,93.45
odintsovo,137043,55.677976,37.277734
kanchrapara,136967,22.97,88.431944
funtua,136821,11.523252,7.30813
dawei,136798,14.0833333,98.2
igboho,136772,8.833333,3.75
obosi,136753,6.096967,6.818432
gandhidham,136605,23.083333,70.133333
shizuishan,136570,39.041944,106.395833
baia mare,136554,47.666667,23.583333
sao caetano do sul,136456,-23.6,-46.566667
tsuchiura,136386,36.090469,140.210473
joetsu,136235,37.111749,138.268442
navsari,136204,20.85,72.916667
mahbubnagar,136150,16.733333,77.983333
gejiu,136135,23.306022,103.163512
dese,136080,11.133333,39.633333
kolpino,136078,59.744167,30.579444
dagupan,135933,16.1,120.516667
dimapur,135866,25.9,93.733333
osorno,135774,-40.566667,-73.15
queimados,135742,-22.722897,-43.556316
kindu,135690,-2.95,25.95
baliuag,135627,14.954722,120.896944
west bromwich,135618,52.516667,-2
cam pha,135487,21.016667,107.316667
bugama,135417,4.734071,6.863451
rabak,135389,13.15,32.7333333
fullerton,135353,33.8702778,-117.9244444
pyay,135325,18.8166667,95.2166667
palmdale,135294,34.5794444,-118.1155556
robertsonpet,135229,12.966667,78.283333
sur,135211,33.2711111,35.1963889
moundou,135167,8.5666667,16.0833333
tours,135143,47.394836,0.703977
henzada,134964,17.6333333,95.4666667
joliet,134957,41.525,-88.0816667
chhindwara,134862,22.066667,78.933333
yongan,134858,25.98,117.364167
mandya,134857,12.524167,76.895833
cartago,134829,4.746389,-75.911667
baturaja,134824,-4.133333,104.166667
cap-haitien,134823,19.7577778,-72.2041667
zama,134674,35.488889,139.388611
limoges,134549,45.831534,1.257805
san mateo,134515,14.6982,121.1236
wurzburg,134499,49.787778,9.936111
chetumal,134464,18.5,-88.3
montalban,134436,14.7314,121.1417
cordoba,134409,18.883333,-96.933333
ajdabiya,134357,30.7591667,20.2230556
nevinnomyssk,134347,44.6333,41.9444
seto,134247,35.233333,137.1
ikirun,134246,7.916667,4.666667
adiwerna,134202,-6.9375,109.1325
abakaliki,134113,6.316249,8.116908
slough,134072,51.5,-0.583333
dali,134040,25.7,100.183333
inegol,134030,40.078056,29.513333
bankura,133979,23.25,87.066667
ebetsu,133955,43.108056,141.550556
thai nguyen,133882,21.592778,105.844167
orange,133874,33.7877778,-117.8522222
singaraja,133796,-8.1127,115.0949
randfontein,133659,-26.178429,27.690266
hajipur,133621,25.683333,85.216667
san juan sacatepequez,133613,14.718889,-90.644167
gonda,133596,27.133333,81.933333
warren,133517,42.4775,-83.0277778
bhuj,133458,23.266667,69.666667
valdivia,133420,-39.8,-73.233333
hindupur,133313,13.828889,77.493333
okrika,133284,4.741589,7.084877
birganj,133244,27,84.8666667
talisay,133189,10.244379,123.8473
awassa,133120,7.05,38.466667
badajoz,133042,38.877894,-6.970613
tanshui,133001,25.1777778,121.4433333
puqi,132891,29.716667,113.883333
tondabayashi,132875,34.5,135.6
sanda,132864,34.883333,135.233333
fujieda,132860,34.866667,138.266667
shillong,132853,25.575556,91.873056
nzerekore,132842,7.7472222,-8.8238889
miandoab,132830,36.9694,46.1027
kislovodsk,132773,43.913333,42.720833
palakkad,132740,10.7725,76.651389
ankang,132654,32.68,109.017222
cajamarca,132622,-7.1666667,-78.5166667
pagadian,132578,7.8257,123.437
pleven,132542,43.4166667,24.6166667
blitar,132431,-8.0983,112.1681
gazipur,132249,23.8,90.65
kakamigahara,132243,35.416667,136.866667
quetzaltenango,132231,14.833333,-91.516667
dimitrovgrad,132228,54.25,49.55
zalantun,132224,48,122.716667
pindamonhangaba,132220,-22.916667,-45.466667
rimini,132031,44.063333,12.580833
omuta,131975,33.033333,130.45
godhra,131921,22.75,73.633333
shahrud,131895,36.418189,54.976282
dawukou,131880,39.041944,106.395833
bulaon,131818,15.0879,120.6667
punto fijo,131797,11.6997222,-70.1991667
abiko,131774,35.866667,140.016667
kadoma,131729,34.733333,135.583333
haarlemmermeer,131698,52.312058,4.693128
tychy,131696,50.137167,18.96641
coral springs,131674,26.2708333,-80.2708333
martapura,131452,-3.416667,114.85
gonbad-e qabus,131427,37.250042,55.167208
da lat,131382,11.933333,108.416667
mesquite,131337,32.7666667,-96.5988889
raniganj,131274,23.616667,87.133333
ferrara,131252,44.833333,11.583333
iranshahr,131242,27.202446,60.684758
neyveli,131213,11.533333,79.483333
cadiz,131106,10.9465,123.288
lashio,131033,22.9333333,97.75
pilibhit,131021,28.633333,79.8
cabudare,131013,10.0288889,-69.0894444
miyakonojo,130995,31.733333,131.066667
novomoskovsk,130984,54.0105,38.2846
bat yam,130973,32.023056,34.750278
buzau,130955,45.15,26.833333
sapucaia,130939,-29.833333,-51.15
matsubara,130857,34.566667,135.55
cape coral,130807,26.5625,-81.9497222
beawar,130786,26.1,74.316667
pinsk,130777,52.1213889,26.0727778
daxian,130749,31.215921,107.500922
shuangcheng,130710,45.35,126.283333
san nicolas,130705,-33.335784,-60.225233
isesaki,130694,36.316667,139.2
garza garcia,130652,25.666667,-100.4
abohar,130613,30.15,74.183333
dabrowa gornicza,130601,50.326206,19.224381
siauliai,130594,55.9333333,23.3166667
moga,130559,30.8,75.166667
wuning,130387,29.258873,120.231083
haicheng,130386,22.975326,115.331794
maicao,130351,11.383208,-72.243208
florencia,130339,1.614382,-75.606229
jiazi,130298,22.877914,116.067054
girardot,130292,4.298659,-74.804681
quilpue,130264,-33.045,-71.449444
la ceiba,130230,15.7833333,-86.8
sinnar,130138,13.55,33.6333333
jaragua do sul,130132,-26.483333,-49.066667
pervouralsk,130016,56.905278,59.943611
dehri,129952,24.866667,84.183333
kisaran,129928,2.9845,99.6158
wuda,129922,39.499444,106.711667
mandi bahauddin,129770,32.583387,73.484315
tokat,129768,40.313889,36.554444
navoi,129734,40.0844444,65.3791667
misato,129695,35.860597,139.864486
ratisbon,129643,49.015,12.095556
lancaster,129548,34.6980556,-118.1358333
daito,129523,34.7,135.616667
marv dasht,129483,29.8742,52.8025
sherbrooke,129447,45.4,-71.9
tete,129316,-16.1563889,33.5866667
copiapo,129281,-27.366667,-70.333333
fort collins,129252,40.5852778,-105.0838889
charallave,129213,10.2483333,-66.8566667
shahr-e kord,129167,32.325556,50.864444
dahuk,129127,36.8658333,42.9997222
udupi,129124,13.35,74.75
leiyang,129116,26.402382,112.859078
gyor,129009,47.687281,17.637616
subang,129009,-6.57,107.756667
satkhira,128933,22.7166667,89.1
palo negro,128895,10.1738889,-67.5419444
larisa,128760,39.6372222,22.4202778
gloucester,128722,51.833333,-2.166667
kamyshin,128628,50.098331,45.416013
oulu,128618,65.016667,25.466667
chinandega,128616,12.6166667,-87.15
hassan,128542,13.000556,76.099444
cambridge,128489,52.2,0.116667
novocheboksarsk,128470,56.110947,47.47755
tighina,128403,46.830556,29.471111
tarragona,128391,41.116667,1.25
khardaha,128358,22.718611,88.378056
teluknaga,128336,-6.065,106.644167
jimma,128330,7.666667,36.833333
manzanillo,128194,20.3433333,-77.1166667
yavatmal,128185,20.4,78.133333
halisahar,128184,22.949722,88.419444
serpukhov,128160,54.915785,37.411139
surt,128123,31.2061111,16.5947222
asaka,128061,35.804722,139.601944
panvel,128056,18.983333,73.1
metz,128021,49.115461,6.175875
thousand oaks,127942,34.1705556,-118.8366667
bandar maharani,127905,2.0442,102.5689
ungaran,127873,-7.139722,110.405
titagarh,127763,22.736389,88.373611
xuanzhou,127758,30.9525,118.755278
uppsala,127734,59.85,17.633333
uppsala,127734,59.866667,17.633333
kusatsu,127681,35.016667,135.966667
opole,127676,50.666667,17.95
syracuse,127666,37.066667,15.3
yuanlin,127650,23.9575,120.5733333
worcester,127604,-33.64651,19.448523
elblag,127558,54.1522,19.408841
norilsk,127504,69.3535,88.2027
leon,127480,42.600031,-5.570316
jequie,127479,-13.85,-40.083333
plock,127474,52.55,19.7
walbrzych,127431,50.771407,16.28432
waw,127400,7.7,28
xai-xai,127366,-25.0519444,33.6441667
huaihua,127322,27.549444,109.959167
amaigbo,127309,5.789171,7.838294
alexandria,127273,38.8047222,-77.0472222
lafia,127246,8.483333,8.516667
colima,127239,19.233333,-103.716667
jiangyou,127225,31.766667,104.716667
surat thani,127201,9.140109,99.333114
sancti spiritus,127073,21.9297222,-79.4425
isiro,127068,2.766667,27.616667
cuddapah,127024,14.466667,78.816667
bettiah,127022,26.8,84.5
angren,126962,41.0166667,70.1436111
daska,126961,32.324262,74.349741
pakokku,126954,21.3333333,95.1
murom,126932,55.575,42.0426
rangkasbitung,126904,-6.3591,106.2494
hathras,126895,27.6,78.05
taman,126875,-7.1785,112.8978
ramat gan,126864,32.080556,34.814167
klaten,126845,-7.705833,110.606389
neftekamsk,126807,56.091991,54.270319
xichang,126787,27.896422,102.263415
pakpattan,126743,30.341044,73.386642
danshui,126701,22.798396,114.467158
sterling heights,126657,42.5802778,-83.0302778
bahawalnagar,126654,29.998659,73.253604
ueda,126607,36.4,138.266667
mercedes,126559,-33.674359,-65.461405
sogamoso,126553,5.714344,-72.933908
edirne,126535,41.675745,26.558665
songea,126499,-10.6833333,35.65
sunnyvale,126499,37.3688889,-122.0352778
lalitpur,126487,24.683333,78.416667
jombang,126479,-7.55,112.233333
kolar,126452,13.133333,78.133333
diourbel,126400,14.6666667,-16.25
lambare,126391,-25.35,-57.65
sabha,126387,27.0333333,14.4333333
macheng,126366,31.178333,115.031944
paseh,126287,-6.803889,107.867222
itapetininga,126245,-23.6,-48.05
patos de minas,126236,-18.583333,-46.533333
villeurbanne,126230,45.765502,4.875522
kashihara,126224,34.45,135.766667
savannah,126119,32.0833333,-81.1
huicheng,125919,23.038449,116.28988
linchuan,125847,27.938274,116.292688
gashua,125827,12.871,11.0482
longyan,125778,25.107222,117.0225
watford,125708,51.666667,-0.4
gainesville,125684,29.6513889,-82.325
xiazhen,125667,34.802222,117.111667
gagnoa,125647,6.131934,-5.950601
tando adam,125646,25.763736,68.660982
najran,125637,17.466667,44.1
concord,125626,37.9780556,-122.03
sorong,125538,-0.883333,131.25
okinawa,125485,26.335833,127.801389
los angeles,125431,-37.466667,-72.35
haimen,125427,23.193486,116.614218
opobo,125398,4.564844,7.547802
opobo,125398,4.51142,7.540093
el monte,125372,34.0686111,-118.0266667
orsha,125347,54.5152778,30.4052778
ruian,125208,27.776047,120.658588
east los angeles,125157,34.0238889,-118.1711111
shahe,125132,36.854722,114.4975
bohicon,125116,7.2,2.0666667
kelowna,125110,49.9,-119.483333
braganca paulista,125099,-22.95,-46.566667
beppu,125067,33.273611,131.491944
san rafael,125033,-34.617717,-68.330066
mandsaur,125002,24.066667,75.066667
padalarang,124953,-6.8425,107.484722
suining,124924,30.508017,105.573324
zamora,124922,19.983333,-102.266667
new haven,124922,41.3080556,-72.9286111
huixquilucan,124852,19.360278,-99.351389
semnan,124831,35.572914,53.397139
babakan,124801,-6.8275,108.498333
pringsewu,124791,-5.358215,104.974407
fayetteville,124775,35.0525,-78.8786111
san francisco de macoris,124772,19.3,-70.25
yushu,124736,44.8,126.533333
nueva san salvador,124702,13.6769444,-89.2797222
uyo,124690,5.033333,7.92657
khairpur,124650,27.529483,68.761698
matsusaka,124614,34.566667,136.533333
riobamba,124478,-1.6666667,-78.6333333
gorzow wielkopolski,124430,52.73679,15.228775
timon,124429,-5.1,-42.816667
latina,124330,41.466667,12.866667
marand,124201,38.4329,45.7749
rajapalaiyam,124179,9.45,77.566667
laiwu,124108,36.192778,117.656944
rustenburg,124064,-25.667562,27.242079
hartford,124019,41.7636111,-72.6855556
teresopolis,123980,-22.424064,-42.968013
elizabeth,123913,40.6638889,-74.2111111
jiupu,123843,41.066667,122.95
darjiling,123808,27.033333,88.266667
higuey,123803,18.6166667,-68.7
baoshan,123791,46.558611,131.424444
hagonoy,123789,14.8321,120.7336
koronadal,123765,6.503056,124.846944
pietersburg,123754,-23.904485,29.468851
thaton,123742,16.9205556,97.3713889
potchefstroom,123674,-26.716667,27.1
ebina,123667,35.381212,139.396515
lumajang,123640,-8.1335,113.2248
ciamis,123631,-7.3257,108.3534
gottingen,123570,51.533333,9.933333
uruguaiana,123482,-29.75,-57.083333
masaya,123474,11.9666667,-86.1
thanyaburi,123382,14.021139,100.734334
palanpur,123301,24.166667,72.433333
indramayu,123271,-6.326389,108.32
soubre,123214,5.783766,-6.59388
porto seguro,123196,-16.433333,-39.083333
wolfsburg,123184,52.433333,10.8
luoyang,123144,23.162442,114.273423
niihama,123061,33.959326,133.316722
bern,123018,46.916667,7.466667
jiaohe,123018,43.728611,127.344722
cedar rapids,122945,42.0083333,-91.6438889
pati,122798,-6.7559,111.038
dum dum,122731,22.622222,88.416944
recklinghausen,122727,51.616667,7.2
alagoinhas,122692,-12.116667,-38.433333
hardoi,122647,27.116667,80.15
brits,122576,-25.634731,27.780224
huangzhou,122563,30.45,114.8
puruliya,122544,23.333333,86.366667
virginia,122542,-28.10391,26.86593
ubon ratchathani,122533,15.23844,104.848659
kisarazu,122527,35.374722,139.9225
palhoca,122425,-27.633333,-48.666667
garut,122421,-7.2024,107.8878
shishou,122411,29.716667,112.4
zhoucun,122402,36.816667,117.816667
jiayuguan,122396,39.816667,98.3
maastricht,122383,50.85,5.683333
tekirdag,122350,40.978012,27.508524
my tho,122315,10.35,106.35
chishtian mandi,122235,29.8,72.866667
aalborg,122219,57.035498,9.941163
barbacena,122213,-21.233333,-43.766667
dibrugarh,122160,27.481667,94.902778
durres,122034,41.3230556,19.4413889
zabol,121999,31.0287,61.5012
